{"type":"FeatureCollection","features":[{"type":"Feature","id":0,"geometry":{"type":"Point","coordinates":[120.17780836,30.260507929999999]},"properties":{"FID":0,"sname":"杭州大学路北口(省中山医院庆春路院区)(公交站)","rname":"杭州1001M路社区接驳巴士(近江公交站--西桥)","order_":17,"city":"杭州","province":"浙江省","geometry":"30.26050793,120.17780836","geometry_X":120.17780836,"geometry_Y":30.260507929999999}},{"type":"Feature","id":1,"geometry":{"type":"Point","coordinates":[120.17098970000001,30.260398070000001]},"properties":{"FID":1,"sname":"杭州浙医一院(公交站)","rname":"杭州1001M路社区接驳巴士(近江公交站--西桥)","order_":18,"city":"杭州","province":"浙江省","geometry":"30.26039807,120.1709897","geometry_X":120.17098970000001,"geometry_Y":30.260398070000001}},{"type":"Feature","id":2,"geometry":{"type":"Point","coordinates":[120.16736684,30.263193739999998]},"properties":{"FID":2,"sname":"杭州仙林桥(公交站)","rname":"杭州1001M路社区接驳巴士(近江公交站--西桥)","order_":19,"city":"杭州","province":"浙江省","geometry":"30.26319374,120.16736684","geometry_X":120.16736684,"geometry_Y":30.263193739999998}},{"type":"Feature","id":3,"geometry":{"type":"Point","coordinates":[120.1679591,30.266933049999999]},"properties":{"FID":3,"sname":"杭州西桥(公交站)","rname":"杭州1001M路社区接驳巴士(近江公交站--西桥)","order_":20,"city":"杭州","province":"浙江省","geometry":"30.26693305,120.1679591","geometry_X":120.1679591,"geometry_Y":30.266933049999999}},{"type":"Feature","id":4,"geometry":{"type":"Point","coordinates":[120.16795782,30.266932879999999]},"properties":{"FID":4,"sname":"杭州西桥(公交站)","rname":"杭州1001M路社区接驳巴士(西桥--近江公交站)","order_":1,"city":"杭州","province":"浙江省","geometry":"30.26693288,120.16795782","geometry_X":120.16795782,"geometry_Y":30.266932879999999}},{"type":"Feature","id":5,"geometry":{"type":"Point","coordinates":[120.1715081,30.266039209999999]},"properties":{"FID":5,"sname":"杭州大东门(公交站)","rname":"杭州1001M路社区接驳巴士(西桥--近江公交站)","order_":2,"city":"杭州","province":"浙江省","geometry":"30.26603921,120.1715081","geometry_X":120.1715081,"geometry_Y":30.266039209999999}},{"type":"Feature","id":6,"geometry":{"type":"Point","coordinates":[120.17157612,30.264022740000001]},"properties":{"FID":6,"sname":"杭州长庆潮鸣街道社区卫生服务中心(招呼站)(公交站)","rname":"杭州1001M路社区接驳巴士(西桥--近江公交站)","order_":3,"city":"杭州","province":"浙江省","geometry":"30.26402274,120.17157612","geometry_X":120.17157612,"geometry_Y":30.264022740000001}},{"type":"Feature","id":7,"geometry":{"type":"Point","coordinates":[120.17167545,30.262278850000001]},"properties":{"FID":7,"sname":"杭州青春坊东门(招呼站)(公交站)","rname":"杭州1001M路社区接驳巴士(西桥--近江公交站)","order_":4,"city":"杭州","province":"浙江省","geometry":"30.26227885,120.17167545","geometry_X":120.17167545,"geometry_Y":30.262278850000001}},{"type":"Feature","id":8,"geometry":{"type":"Point","coordinates":[120.17098884000001,30.260397350000002]},"properties":{"FID":8,"sname":"杭州浙医一院(公交站)","rname":"杭州1002M路社区便利巴士(长明寺巷--长庆街东)","order_":4,"city":"杭州","province":"浙江省","geometry":"30.26039735,120.17098884","geometry_X":120.17098884000001,"geometry_Y":30.260397350000002}},{"type":"Feature","id":9,"geometry":{"type":"Point","coordinates":[120.16855871999999,30.262842920000001]},"properties":{"FID":9,"sname":"杭州吴牙巷(公交站)","rname":"杭州1002M路社区便利巴士(长明寺巷--长庆街东)","order_":5,"city":"杭州","province":"浙江省","geometry":"30.26284292,120.16855872","geometry_X":120.16855871999999,"geometry_Y":30.262842920000001}},{"type":"Feature","id":10,"geometry":{"type":"Point","coordinates":[120.17137117,30.262929190000001]},"properties":{"FID":10,"sname":"杭州长庆街东(公交站)","rname":"杭州1002M路社区便利巴士(长明寺巷--长庆街东)","order_":6,"city":"杭州","province":"浙江省","geometry":"30.26292919,120.17137117","geometry_X":120.17137117,"geometry_Y":30.262929190000001}},{"type":"Feature","id":11,"geometry":{"type":"Point","coordinates":[120.17134052,30.262929620000001]},"properties":{"FID":11,"sname":"杭州长庆街东(公交站)","rname":"杭州1002M路社区便利巴士(长庆街东--长明寺巷)","order_":1,"city":"杭州","province":"浙江省","geometry":"30.26292962,120.17134052","geometry_X":120.17134052,"geometry_Y":30.262929620000001}},{"type":"Feature","id":12,"geometry":{"type":"Point","coordinates":[120.17167206000001,30.262356910000001]},"properties":{"FID":12,"sname":"杭州青春坊东门(招呼站)(公交站)","rname":"杭州1002M路社区便利巴士(长庆街东--长明寺巷)","order_":2,"city":"杭州","province":"浙江省","geometry":"30.26235691,120.17167206","geometry_X":120.17167206000001,"geometry_Y":30.262356910000001}},{"type":"Feature","id":13,"geometry":{"type":"Point","coordinates":[120.1545163,30.291813950000002]},"properties":{"FID":13,"sname":"杭州朝晖八区(招呼站)(公交站)","rname":"杭州1004路(德胜新村中--百井坊巷)","order_":7,"city":"杭州","province":"浙江省","geometry":"30.29181395,120.1545163","geometry_X":120.1545163,"geometry_Y":30.291813950000002}},{"type":"Feature","id":14,"geometry":{"type":"Point","coordinates":[120.15598854,30.289437320000001]},"properties":{"FID":14,"sname":"杭州朝晖五区(公交站)","rname":"杭州1004路(德胜新村中--百井坊巷)","order_":8,"city":"杭州","province":"浙江省","geometry":"30.28943732,120.15598854","geometry_X":120.15598854,"geometry_Y":30.289437320000001}},{"type":"Feature","id":15,"geometry":{"type":"Point","coordinates":[120.15808490000001,30.28685441]},"properties":{"FID":15,"sname":"杭州朝晖三区(公交站)","rname":"杭州1004路(德胜新村中--百井坊巷)","order_":9,"city":"杭州","province":"浙江省","geometry":"30.28685441,120.1580849","geometry_X":120.15808490000001,"geometry_Y":30.28685441}},{"type":"Feature","id":16,"geometry":{"type":"Point","coordinates":[120.16089427999999,30.28221353]},"properties":{"FID":16,"sname":"杭州西湖文化广场(公交站)","rname":"杭州1004路(德胜新村中--百井坊巷)","order_":10,"city":"杭州","province":"浙江省","geometry":"30.28221353,120.16089428","geometry_X":120.16089427999999,"geometry_Y":30.28221353}},{"type":"Feature","id":17,"geometry":{"type":"Point","coordinates":[120.16181954,30.274563180000001]},"properties":{"FID":17,"sname":"杭州小北门(公交站)","rname":"杭州1004路(德胜新村中--百井坊巷)","order_":11,"city":"杭州","province":"浙江省","geometry":"30.27456318,120.16181954","geometry_X":120.16181954,"geometry_Y":30.274563180000001}},{"type":"Feature","id":18,"geometry":{"type":"Point","coordinates":[120.16273769,30.270706520000001]},"properties":{"FID":18,"sname":"杭州天水桥(公交站)","rname":"杭州1004路(德胜新村中--百井坊巷)","order_":12,"city":"杭州","province":"浙江省","geometry":"30.27070652,120.16273769","geometry_X":120.16273769,"geometry_Y":30.270706520000001}},{"type":"Feature","id":19,"geometry":{"type":"Point","coordinates":[120.16214945999999,30.269116409999999]},"properties":{"FID":19,"sname":"杭州百井坊巷(公交站)","rname":"杭州1004路(德胜新村中--百井坊巷)","order_":13,"city":"杭州","province":"浙江省","geometry":"30.26911641,120.16214946","geometry_X":120.16214945999999,"geometry_Y":30.269116409999999}},{"type":"Feature","id":20,"geometry":{"type":"Point","coordinates":[120.16215129,30.26911776]},"properties":{"FID":20,"sname":"杭州百井坊巷(公交站)","rname":"杭州1004路(百井坊巷--德胜新村中)","order_":1,"city":"杭州","province":"浙江省","geometry":"30.26911776,120.16215129","geometry_X":120.16215129,"geometry_Y":30.26911776}},{"type":"Feature","id":21,"geometry":{"type":"Point","coordinates":[120.15881951999999,30.270686120000001]},"properties":{"FID":21,"sname":"杭州延安新村2(公交站)","rname":"杭州1004路(百井坊巷--德胜新村中)","order_":2,"city":"杭州","province":"浙江省","geometry":"30.27068612,120.15881952","geometry_X":120.15881951999999,"geometry_Y":30.270686120000001}},{"type":"Feature","id":22,"geometry":{"type":"Point","coordinates":[120.16195448000001,30.274221600000001]},"properties":{"FID":22,"sname":"杭州小北门(公交站)","rname":"杭州1004路(百井坊巷--德胜新村中)","order_":3,"city":"杭州","province":"浙江省","geometry":"30.2742216,120.16195448","geometry_X":120.16195448000001,"geometry_Y":30.274221600000001}},{"type":"Feature","id":23,"geometry":{"type":"Point","coordinates":[120.16096416000001,30.281903100000001]},"properties":{"FID":23,"sname":"杭州西湖文化广场(公交站)","rname":"杭州1004路(百井坊巷--德胜新村中)","order_":4,"city":"杭州","province":"浙江省","geometry":"30.2819031,120.16096416","geometry_X":120.16096416000001,"geometry_Y":30.281903100000001}},{"type":"Feature","id":24,"geometry":{"type":"Point","coordinates":[120.16003379,30.284436809999999]},"properties":{"FID":24,"sname":"杭州朝晖一区1(公交站)","rname":"杭州1004路(百井坊巷--德胜新村中)","order_":5,"city":"杭州","province":"浙江省","geometry":"30.28443681,120.16003379","geometry_X":120.16003379,"geometry_Y":30.284436809999999}},{"type":"Feature","id":25,"geometry":{"type":"Point","coordinates":[120.1583735,30.286507189999998]},"properties":{"FID":25,"sname":"杭州朝晖三区(公交站)","rname":"杭州1004路(百井坊巷--德胜新村中)","order_":6,"city":"杭州","province":"浙江省","geometry":"30.28650719,120.1583735","geometry_X":120.1583735,"geometry_Y":30.286507189999998}},{"type":"Feature","id":26,"geometry":{"type":"Point","coordinates":[120.15621882000001,30.289228309999999]},"properties":{"FID":26,"sname":"杭州朝晖五区(公交站)","rname":"杭州1004路(百井坊巷--德胜新村中)","order_":7,"city":"杭州","province":"浙江省","geometry":"30.28922831,120.15621882","geometry_X":120.15621882000001,"geometry_Y":30.289228309999999}},{"type":"Feature","id":27,"geometry":{"type":"Point","coordinates":[120.15431040999999,30.29248011]},"properties":{"FID":27,"sname":"杭州朝晖八区(招呼站)(公交站)","rname":"杭州1004路(百井坊巷--德胜新村中)","order_":8,"city":"杭州","province":"浙江省","geometry":"30.29248011,120.15431041","geometry_X":120.15431040999999,"geometry_Y":30.29248011}},{"type":"Feature","id":28,"geometry":{"type":"Point","coordinates":[120.17531533,30.26696699]},"properties":{"FID":28,"sname":"杭州所巷(地铁建国北路站)1(公交站)","rname":"杭州1008M路(浙医二院?马市街--浙医二院?马市街)","order_":4,"city":"杭州","province":"浙江省","geometry":"30.26696699,120.17531533","geometry_X":120.17531533,"geometry_Y":30.26696699}},{"type":"Feature","id":29,"geometry":{"type":"Point","coordinates":[120.17341784,30.267001799999999]},"properties":{"FID":29,"sname":"杭州所巷(地铁建国北路站)2(公交站)","rname":"杭州1008M路(浙医二院?马市街--浙医二院?马市街)","order_":5,"city":"杭州","province":"浙江省","geometry":"30.2670018,120.17341784","geometry_X":120.17341784,"geometry_Y":30.267001799999999}},{"type":"Feature","id":30,"geometry":{"type":"Point","coordinates":[120.1714578,30.266004939999998]},"properties":{"FID":30,"sname":"杭州大东门(公交站)","rname":"杭州1008M路(浙医二院?马市街--浙医二院?马市街)","order_":6,"city":"杭州","province":"浙江省","geometry":"30.26600494,120.1714578","geometry_X":120.1714578,"geometry_Y":30.266004939999998}},{"type":"Feature","id":31,"geometry":{"type":"Point","coordinates":[120.17157559,30.264023340000001]},"properties":{"FID":31,"sname":"杭州长庆潮鸣街道社区卫生服务中心(招呼站)(公交站)","rname":"杭州1008M路(浙医二院?马市街--浙医二院?马市街)","order_":7,"city":"杭州","province":"浙江省","geometry":"30.26402334,120.17157559","geometry_X":120.17157559,"geometry_Y":30.264023340000001}},{"type":"Feature","id":32,"geometry":{"type":"Point","coordinates":[120.17167471,30.262279270000001]},"properties":{"FID":32,"sname":"杭州青春坊东门(招呼站)(公交站)","rname":"杭州1008M路(浙医二院?马市街--浙医二院?马市街)","order_":8,"city":"杭州","province":"浙江省","geometry":"30.26227927,120.17167471","geometry_X":120.17167471,"geometry_Y":30.262279270000001}},{"type":"Feature","id":33,"geometry":{"type":"Point","coordinates":[120.16648171999999,30.29024575]},"properties":{"FID":33,"sname":"杭州朝晖六区东(公交站)","rname":"杭州1014路社区便利巴士(朝晖六区东--城站火车站(环城东路路中))","order_":1,"city":"杭州","province":"浙江省","geometry":"30.29024575,120.16648172","geometry_X":120.16648171999999,"geometry_Y":30.29024575}},{"type":"Feature","id":34,"geometry":{"type":"Point","coordinates":[120.16227933,30.289610639999999]},"properties":{"FID":34,"sname":"杭州朝晖四区(公交站)","rname":"杭州1014路社区便利巴士(朝晖六区东--城站火车站(环城东路路中))","order_":2,"city":"杭州","province":"浙江省","geometry":"30.28961064,120.16227933","geometry_X":120.16227933,"geometry_Y":30.289610639999999}},{"type":"Feature","id":35,"geometry":{"type":"Point","coordinates":[120.16138107,30.288331880000001]},"properties":{"FID":35,"sname":"杭州省人民医院(公交站)","rname":"杭州1014路社区便利巴士(朝晖六区东--城站火车站(环城东路路中))","order_":3,"city":"杭州","province":"浙江省","geometry":"30.28833188,120.16138107","geometry_X":120.16138107,"geometry_Y":30.288331880000001}},{"type":"Feature","id":36,"geometry":{"type":"Point","coordinates":[120.16510585,30.280773459999999]},"properties":{"FID":36,"sname":"杭州中河立交北(公交站)","rname":"杭州1014路社区便利巴士(朝晖六区东--城站火车站(环城东路路中))","order_":4,"city":"杭州","province":"浙江省","geometry":"30.28077346,120.16510585","geometry_X":120.16510585,"geometry_Y":30.280773459999999}},{"type":"Feature","id":37,"geometry":{"type":"Point","coordinates":[120.16235969,30.278737979999999]},"properties":{"FID":37,"sname":"杭州中北桥(公交站)","rname":"杭州1014路社区便利巴士(朝晖六区东--城站火车站(环城东路路中))","order_":5,"city":"杭州","province":"浙江省","geometry":"30.27873798,120.16235969","geometry_X":120.16235969,"geometry_Y":30.278737979999999}},{"type":"Feature","id":38,"geometry":{"type":"Point","coordinates":[120.1618185,30.274563199999999]},"properties":{"FID":38,"sname":"杭州小北门(公交站)","rname":"杭州1014路社区便利巴士(朝晖六区东--城站火车站(环城东路路中))","order_":6,"city":"杭州","province":"浙江省","geometry":"30.2745632,120.1618185","geometry_X":120.1618185,"geometry_Y":30.274563199999999}},{"type":"Feature","id":39,"geometry":{"type":"Point","coordinates":[120.16273918,30.270706560000001]},"properties":{"FID":39,"sname":"杭州天水桥(公交站)","rname":"杭州1014路社区便利巴士(朝晖六区东--城站火车站(环城东路路中))","order_":7,"city":"杭州","province":"浙江省","geometry":"30.27070656,120.16273918","geometry_X":120.16273918,"geometry_Y":30.270706560000001}},{"type":"Feature","id":40,"geometry":{"type":"Point","coordinates":[120.16444959,30.26472592]},"properties":{"FID":40,"sname":"杭州贯桥(公交站)","rname":"杭州1014路社区便利巴士(朝晖六区东--城站火车站(环城东路路中))","order_":8,"city":"杭州","province":"浙江省","geometry":"30.26472592,120.16444959","geometry_X":120.16444959,"geometry_Y":30.26472592}},{"type":"Feature","id":41,"geometry":{"type":"Point","coordinates":[120.16482443,30.261497940000002]},"properties":{"FID":41,"sname":"杭州众安桥北(公交站)","rname":"杭州1014路社区便利巴士(朝晖六区东--城站火车站(环城东路路中))","order_":9,"city":"杭州","province":"浙江省","geometry":"30.26149794,120.16482443","geometry_X":120.16482443,"geometry_Y":30.261497940000002}},{"type":"Feature","id":42,"geometry":{"type":"Point","coordinates":[120.16488631999999,30.261567150000001]},"properties":{"FID":42,"sname":"杭州众安桥北(公交站)","rname":"杭州1014路社区便利巴士(城站火车站(环城东路路中)--朝晖六区东)","order_":8,"city":"杭州","province":"浙江省","geometry":"30.26156715,120.16488632","geometry_X":120.16488631999999,"geometry_Y":30.261567150000001}},{"type":"Feature","id":43,"geometry":{"type":"Point","coordinates":[120.16436686,30.265539050000001]},"properties":{"FID":43,"sname":"杭州贯桥(公交站)","rname":"杭州1014路社区便利巴士(城站火车站(环城东路路中)--朝晖六区东)","order_":9,"city":"杭州","province":"浙江省","geometry":"30.26553905,120.16436686","geometry_X":120.16436686,"geometry_Y":30.265539050000001}},{"type":"Feature","id":44,"geometry":{"type":"Point","coordinates":[120.16262564,30.270997090000002]},"properties":{"FID":44,"sname":"杭州天水桥(公交站)","rname":"杭州1014路社区便利巴士(城站火车站(环城东路路中)--朝晖六区东)","order_":10,"city":"杭州","province":"浙江省","geometry":"30.27099709,120.16262564","geometry_X":120.16262564,"geometry_Y":30.270997090000002}},{"type":"Feature","id":45,"geometry":{"type":"Point","coordinates":[120.16195456,30.27422159]},"properties":{"FID":45,"sname":"杭州小北门(公交站)","rname":"杭州1014路社区便利巴士(城站火车站(环城东路路中)--朝晖六区东)","order_":11,"city":"杭州","province":"浙江省","geometry":"30.27422159,120.16195456","geometry_X":120.16195456,"geometry_Y":30.27422159}},{"type":"Feature","id":46,"geometry":{"type":"Point","coordinates":[120.16365763,30.2787516]},"properties":{"FID":46,"sname":"杭州中北桥(公交站)","rname":"杭州1014路社区便利巴士(城站火车站(环城东路路中)--朝晖六区东)","order_":12,"city":"杭州","province":"浙江省","geometry":"30.2787516,120.16365763","geometry_X":120.16365763,"geometry_Y":30.2787516}},{"type":"Feature","id":47,"geometry":{"type":"Point","coordinates":[120.16372894,30.285438760000002]},"properties":{"FID":47,"sname":"杭州朝晖二区(公交站)","rname":"杭州1014路社区便利巴士(城站火车站(环城东路路中)--朝晖六区东)","order_":13,"city":"杭州","province":"浙江省","geometry":"30.28543876,120.16372894","geometry_X":120.16372894,"geometry_Y":30.285438760000002}},{"type":"Feature","id":48,"geometry":{"type":"Point","coordinates":[120.16159602,30.288701400000001]},"properties":{"FID":48,"sname":"杭州省人民医院(公交站)","rname":"杭州1014路社区便利巴士(城站火车站(环城东路路中)--朝晖六区东)","order_":14,"city":"杭州","province":"浙江省","geometry":"30.2887014,120.16159602","geometry_X":120.16159602,"geometry_Y":30.288701400000001}},{"type":"Feature","id":49,"geometry":{"type":"Point","coordinates":[120.16226129,30.289606890000002]},"properties":{"FID":49,"sname":"杭州朝晖四区(公交站)","rname":"杭州1014路社区便利巴士(城站火车站(环城东路路中)--朝晖六区东)","order_":15,"city":"杭州","province":"浙江省","geometry":"30.28960689,120.16226129","geometry_X":120.16226129,"geometry_Y":30.289606890000002}},{"type":"Feature","id":50,"geometry":{"type":"Point","coordinates":[120.16645803999999,30.290242289999998]},"properties":{"FID":50,"sname":"杭州朝晖六区东(公交站)","rname":"杭州1014路社区便利巴士(城站火车站(环城东路路中)--朝晖六区东)","order_":16,"city":"杭州","province":"浙江省","geometry":"30.29024229,120.16645804","geometry_X":120.16645803999999,"geometry_Y":30.290242289999998}},{"type":"Feature","id":51,"geometry":{"type":"Point","coordinates":[120.15566318,30.26140594]},"properties":{"FID":51,"sname":"杭州六公园(公交站)","rname":"杭州101路(六公园--杭氧街)","order_":1,"city":"杭州","province":"浙江省","geometry":"30.26140594,120.15566318","geometry_X":120.15566318,"geometry_Y":30.26140594}},{"type":"Feature","id":52,"geometry":{"type":"Point","coordinates":[120.1483901,30.288008000000001]},"properties":{"FID":52,"sname":"杭州红石板新村(公交站)","rname":"杭州101路(六公园--杭氧街)","order_":10,"city":"杭州","province":"浙江省","geometry":"30.288008,120.1483901","geometry_X":120.1483901,"geometry_Y":30.288008000000001}},{"type":"Feature","id":53,"geometry":{"type":"Point","coordinates":[120.15274476,30.289995300000001]},"properties":{"FID":53,"sname":"杭州朝晖九区(公交站)","rname":"杭州101路(六公园--杭氧街)","order_":11,"city":"杭州","province":"浙江省","geometry":"30.2899953,120.15274476","geometry_X":120.15274476,"geometry_Y":30.289995300000001}},{"type":"Feature","id":54,"geometry":{"type":"Point","coordinates":[120.15713484,30.29150593]},"properties":{"FID":54,"sname":"杭州朝晖八区南(公交站)","rname":"杭州101路(六公园--杭氧街)","order_":12,"city":"杭州","province":"浙江省","geometry":"30.29150593,120.15713484","geometry_X":120.15713484,"geometry_Y":30.29150593}},{"type":"Feature","id":55,"geometry":{"type":"Point","coordinates":[120.16316534000001,30.292623689999999]},"properties":{"FID":55,"sname":"杭州浙江工业大学(公交站)","rname":"杭州101路(六公园--杭氧街)","order_":13,"city":"杭州","province":"浙江省","geometry":"30.29262369,120.16316534","geometry_X":120.16316534000001,"geometry_Y":30.292623689999999}},{"type":"Feature","id":56,"geometry":{"type":"Point","coordinates":[120.16476274,30.299091310000001]},"properties":{"FID":56,"sname":"杭州绍兴路德胜路口1(公交站)","rname":"杭州101路(六公园--杭氧街)","order_":14,"city":"杭州","province":"浙江省","geometry":"30.29909131,120.16476274","geometry_X":120.16476274,"geometry_Y":30.299091310000001}},{"type":"Feature","id":57,"geometry":{"type":"Point","coordinates":[120.1644228,30.301173070000001]},"properties":{"FID":57,"sname":"杭州德胜里(公交站)","rname":"杭州101路(六公园--杭氧街)","order_":15,"city":"杭州","province":"浙江省","geometry":"30.30117307,120.1644228","geometry_X":120.1644228,"geometry_Y":30.301173070000001}},{"type":"Feature","id":58,"geometry":{"type":"Point","coordinates":[120.16913891999999,30.302855359999999]},"properties":{"FID":58,"sname":"杭州德胜东村(公交站)","rname":"杭州101路(六公园--杭氧街)","order_":16,"city":"杭州","province":"浙江省","geometry":"30.30285536,120.16913892","geometry_X":120.16913891999999,"geometry_Y":30.302855359999999}},{"type":"Feature","id":59,"geometry":{"type":"Point","coordinates":[120.17774805000001,30.3054661]},"properties":{"FID":59,"sname":"杭州草庵(公交站)","rname":"杭州101路(六公园--杭氧街)","order_":17,"city":"杭州","province":"浙江省","geometry":"30.3054661,120.17774805","geometry_X":120.17774805000001,"geometry_Y":30.3054661}},{"type":"Feature","id":60,"geometry":{"type":"Point","coordinates":[120.17932734999999,30.303347160000001]},"properties":{"FID":60,"sname":"杭州王公桥(公交站)","rname":"杭州101路(六公园--杭氧街)","order_":18,"city":"杭州","province":"浙江省","geometry":"30.30334716,120.17932735","geometry_X":120.17932734999999,"geometry_Y":30.303347160000001}},{"type":"Feature","id":61,"geometry":{"type":"Point","coordinates":[120.17644319,30.302538129999999]},"properties":{"FID":61,"sname":"杭州杭氧街(公交站)","rname":"杭州101路(六公园--杭氧街)","order_":19,"city":"杭州","province":"浙江省","geometry":"30.30253813,120.17644319","geometry_X":120.17644319,"geometry_Y":30.302538129999999}},{"type":"Feature","id":62,"geometry":{"type":"Point","coordinates":[120.17644335,30.302541860000002]},"properties":{"FID":62,"sname":"杭州杭氧街(公交站)","rname":"杭州101路(杭氧街--六公园)","order_":1,"city":"杭州","province":"浙江省","geometry":"30.30254186,120.17644335","geometry_X":120.17644335,"geometry_Y":30.302541860000002}},{"type":"Feature","id":63,"geometry":{"type":"Point","coordinates":[120.17348930999999,30.302806]},"properties":{"FID":63,"sname":"杭州东新路德胜路口(公交站)","rname":"杭州101路(杭氧街--六公园)","order_":2,"city":"杭州","province":"浙江省","geometry":"30.302806,120.17348931","geometry_X":120.17348930999999,"geometry_Y":30.302806}},{"type":"Feature","id":64,"geometry":{"type":"Point","coordinates":[120.16975434,30.303266409999999]},"properties":{"FID":64,"sname":"杭州德胜东村(公交站)","rname":"杭州101路(杭氧街--六公园)","order_":3,"city":"杭州","province":"浙江省","geometry":"30.30326641,120.16975434","geometry_X":120.16975434,"geometry_Y":30.303266409999999}},{"type":"Feature","id":65,"geometry":{"type":"Point","coordinates":[120.16426408,30.299517380000001]},"properties":{"FID":65,"sname":"杭州绍兴路德胜路口2(公交站)","rname":"杭州101路(杭氧街--六公园)","order_":4,"city":"杭州","province":"浙江省","geometry":"30.29951738,120.16426408","geometry_X":120.16426408,"geometry_Y":30.299517380000001}},{"type":"Feature","id":66,"geometry":{"type":"Point","coordinates":[120.1611776,30.292386]},"properties":{"FID":66,"sname":"杭州浙江工业大学(公交站)","rname":"杭州101路(杭氧街--六公园)","order_":5,"city":"杭州","province":"浙江省","geometry":"30.292386,120.1611776","geometry_X":120.1611776,"geometry_Y":30.292386}},{"type":"Feature","id":67,"geometry":{"type":"Point","coordinates":[120.15618162,30.291329600000001]},"properties":{"FID":67,"sname":"杭州朝晖八区南(公交站)","rname":"杭州101路(杭氧街--六公园)","order_":6,"city":"杭州","province":"浙江省","geometry":"30.2913296,120.15618162","geometry_X":120.15618162,"geometry_Y":30.291329600000001}},{"type":"Feature","id":68,"geometry":{"type":"Point","coordinates":[120.15307112000001,30.290290259999999]},"properties":{"FID":68,"sname":"杭州朝晖九区(公交站)","rname":"杭州101路(杭氧街--六公园)","order_":7,"city":"杭州","province":"浙江省","geometry":"30.29029026,120.15307112","geometry_X":120.15307112000001,"geometry_Y":30.290290259999999}},{"type":"Feature","id":69,"geometry":{"type":"Point","coordinates":[120.15555831,30.26116545]},"properties":{"FID":69,"sname":"杭州六公园(公交站)","rname":"杭州101路(杭氧街--六公园)","order_":17,"city":"杭州","province":"浙江省","geometry":"30.26116545,120.15555831","geometry_X":120.15555831,"geometry_Y":30.26116545}},{"type":"Feature","id":70,"geometry":{"type":"Point","coordinates":[120.16306862,30.260631950000001]},"properties":{"FID":70,"sname":"杭州庆春路浣纱路口(公交站)","rname":"杭州102路(不经六公园、长寿桥)(雄镇楼1--黄龙体育中心西)","order_":10,"city":"杭州","province":"浙江省","geometry":"30.26063195,120.16306862","geometry_X":120.16306862,"geometry_Y":30.260631950000001}},{"type":"Feature","id":71,"geometry":{"type":"Point","coordinates":[120.15911709,30.264328649999999]},"properties":{"FID":71,"sname":"杭州孩儿巷(公交站)","rname":"杭州102路(不经六公园、长寿桥)(雄镇楼1--黄龙体育中心西)","order_":11,"city":"杭州","province":"浙江省","geometry":"30.26432865,120.15911709","geometry_X":120.15911709,"geometry_Y":30.264328649999999}},{"type":"Feature","id":72,"geometry":{"type":"Point","coordinates":[120.15521934,30.269564880000001]},"properties":{"FID":72,"sname":"杭州昌化新村(公交站)","rname":"杭州102路(不经六公园、长寿桥)(雄镇楼1--黄龙体育中心西)","order_":12,"city":"杭州","province":"浙江省","geometry":"30.26956488,120.15521934","geometry_X":120.15521934,"geometry_Y":30.269564880000001}},{"type":"Feature","id":73,"geometry":{"type":"Point","coordinates":[120.15193351000001,30.2731557]},"properties":{"FID":73,"sname":"杭州武林门(公交站)","rname":"杭州102路(不经六公园、长寿桥)(雄镇楼1--黄龙体育中心西)","order_":13,"city":"杭州","province":"浙江省","geometry":"30.2731557,120.15193351","geometry_X":120.15193351000001,"geometry_Y":30.2731557}},{"type":"Feature","id":74,"geometry":{"type":"Point","coordinates":[120.16306971,30.260631199999999]},"properties":{"FID":74,"sname":"杭州庆春路浣纱路口(公交站)","rname":"杭州102路(雄镇楼1--黄龙体育中心西)","order_":11,"city":"杭州","province":"浙江省","geometry":"30.2606312,120.16306971","geometry_X":120.16306971,"geometry_Y":30.260631199999999}},{"type":"Feature","id":75,"geometry":{"type":"Point","coordinates":[120.15642205,30.26128289]},"properties":{"FID":75,"sname":"杭州六公园(公交站)","rname":"杭州102路(雄镇楼1--黄龙体育中心西)","order_":12,"city":"杭州","province":"浙江省","geometry":"30.26128289,120.15642205","geometry_X":120.15642205,"geometry_Y":30.26128289}},{"type":"Feature","id":76,"geometry":{"type":"Point","coordinates":[120.15643792,30.264476770000002]},"properties":{"FID":76,"sname":"杭州长寿桥(公交站)","rname":"杭州102路(雄镇楼1--黄龙体育中心西)","order_":13,"city":"杭州","province":"浙江省","geometry":"30.26447677,120.15643792","geometry_X":120.15643792,"geometry_Y":30.264476770000002}},{"type":"Feature","id":77,"geometry":{"type":"Point","coordinates":[120.15598968,30.26709202]},"properties":{"FID":77,"sname":"杭州江山弄(公交站)","rname":"杭州102路(雄镇楼1--黄龙体育中心西)","order_":14,"city":"杭州","province":"浙江省","geometry":"30.26709202,120.15598968","geometry_X":120.15598968,"geometry_Y":30.26709202}},{"type":"Feature","id":78,"geometry":{"type":"Point","coordinates":[120.15521922000001,30.26956479]},"properties":{"FID":78,"sname":"杭州昌化新村(公交站)","rname":"杭州102路(雄镇楼1--黄龙体育中心西)","order_":15,"city":"杭州","province":"浙江省","geometry":"30.26956479,120.15521922","geometry_X":120.15521922000001,"geometry_Y":30.26956479}},{"type":"Feature","id":79,"geometry":{"type":"Point","coordinates":[120.15176361,30.27316356]},"properties":{"FID":79,"sname":"杭州武林门(公交站)","rname":"杭州102路(雄镇楼1--黄龙体育中心西)","order_":16,"city":"杭州","province":"浙江省","geometry":"30.27316356,120.15176361","geometry_X":120.15176361,"geometry_Y":30.27316356}},{"type":"Feature","id":80,"geometry":{"type":"Point","coordinates":[120.15742932000001,30.263383269999999]},"properties":{"FID":80,"sname":"杭州六公园北站(地铁凤起路站)(公交站)","rname":"杭州103路(六公园北站(地铁凤起路站)--九溪)","order_":1,"city":"杭州","province":"浙江省","geometry":"30.26338327,120.15742932","geometry_X":120.15742932000001,"geometry_Y":30.263383269999999}},{"type":"Feature","id":81,"geometry":{"type":"Point","coordinates":[120.15577343,30.260673489999999]},"properties":{"FID":81,"sname":"杭州小车桥(公交站)","rname":"杭州103路(六公园北站(地铁凤起路站)--九溪)","order_":2,"city":"杭州","province":"浙江省","geometry":"30.26067349,120.15577343","geometry_X":120.15577343,"geometry_Y":30.260673489999999}},{"type":"Feature","id":82,"geometry":{"type":"Point","coordinates":[120.15370949,30.262084590000001]},"properties":{"FID":82,"sname":"杭州钱塘门外(公交站)","rname":"杭州103路(六公园北站(地铁凤起路站)--九溪)","order_":3,"city":"杭州","province":"浙江省","geometry":"30.26208459,120.15370949","geometry_X":120.15370949,"geometry_Y":30.262084590000001}},{"type":"Feature","id":83,"geometry":{"type":"Point","coordinates":[120.15642287999999,30.261281109999999]},"properties":{"FID":83,"sname":"杭州六公园(公交站)","rname":"杭州103路(九溪--六公园北站(地铁凤起路站))","order_":28,"city":"杭州","province":"浙江省","geometry":"30.26128111,120.15642288","geometry_X":120.15642287999999,"geometry_Y":30.261281109999999}},{"type":"Feature","id":84,"geometry":{"type":"Point","coordinates":[120.15742729,30.263382839999998]},"properties":{"FID":84,"sname":"杭州六公园北站(地铁凤起路站)(公交站)","rname":"杭州103路(九溪--六公园北站(地铁凤起路站))","order_":29,"city":"杭州","province":"浙江省","geometry":"30.26338284,120.15742729","geometry_X":120.15742729,"geometry_Y":30.263382839999998}},{"type":"Feature","id":85,"geometry":{"type":"Point","coordinates":[120.15577266,30.260672289999999]},"properties":{"FID":85,"sname":"杭州小车桥(公交站)","rname":"杭州10路(平海路岳王路口--塘萍路南)","order_":2,"city":"杭州","province":"浙江省","geometry":"30.26067229,120.15577266","geometry_X":120.15577266,"geometry_Y":30.260672289999999}},{"type":"Feature","id":86,"geometry":{"type":"Point","coordinates":[120.15217176,30.267275940000001]},"properties":{"FID":86,"sname":"杭州环城西路十四中(公交站)","rname":"杭州10路(平海路岳王路口--塘萍路南)","order_":3,"city":"杭州","province":"浙江省","geometry":"30.26727594,120.15217176","geometry_X":120.15217176,"geometry_Y":30.267275940000001}},{"type":"Feature","id":87,"geometry":{"type":"Point","coordinates":[120.15136724,30.269870090000001]},"properties":{"FID":87,"sname":"杭州省府大楼东(公交站)","rname":"杭州10路(平海路岳王路口--塘萍路南)","order_":4,"city":"杭州","province":"浙江省","geometry":"30.26987009,120.15136724","geometry_X":120.15136724,"geometry_Y":30.269870090000001}},{"type":"Feature","id":88,"geometry":{"type":"Point","coordinates":[120.15079455,30.27186953]},"properties":{"FID":88,"sname":"杭州武林门南(公交站)","rname":"杭州10路(平海路岳王路口--塘萍路南)","order_":5,"city":"杭州","province":"浙江省","geometry":"30.27186953,120.15079455","geometry_X":120.15079455,"geometry_Y":30.27186953}},{"type":"Feature","id":89,"geometry":{"type":"Point","coordinates":[120.17647472,30.296623660000002]},"properties":{"FID":89,"sname":"杭州岳帅桥(公交站)","rname":"杭州1103M路晚高峰(岳帅桥--岳帅桥)","order_":1,"city":"杭州","province":"浙江省","geometry":"30.29662366,120.17647472","geometry_X":120.17647472,"geometry_Y":30.296623660000002}},{"type":"Feature","id":90,"geometry":{"type":"Point","coordinates":[120.17579963,30.296039050000001]},"properties":{"FID":90,"sname":"杭州地铁杭氧站A口(公交站)","rname":"杭州1103M路晚高峰(岳帅桥--岳帅桥)","order_":2,"city":"杭州","province":"浙江省","geometry":"30.29603905,120.17579963","geometry_X":120.17579963,"geometry_Y":30.296039050000001}},{"type":"Feature","id":91,"geometry":{"type":"Point","coordinates":[120.17447346,30.296867070000001]},"properties":{"FID":91,"sname":"杭州杭氧(公交站)","rname":"杭州1103M路晚高峰(岳帅桥--岳帅桥)","order_":3,"city":"杭州","province":"浙江省","geometry":"30.29686707,120.17447346","geometry_X":120.17447346,"geometry_Y":30.296867070000001}},{"type":"Feature","id":92,"geometry":{"type":"Point","coordinates":[120.17479244,30.302101]},"properties":{"FID":92,"sname":"杭州杭氧桥(公交站)","rname":"杭州1103M路晚高峰(岳帅桥--岳帅桥)","order_":4,"city":"杭州","province":"浙江省","geometry":"30.302101,120.17479244","geometry_X":120.17479244,"geometry_Y":30.302101}},{"type":"Feature","id":93,"geometry":{"type":"Point","coordinates":[120.17580285,30.303227]},"properties":{"FID":93,"sname":"杭州新德佳苑(公交站)","rname":"杭州1103M路晚高峰(岳帅桥--岳帅桥)","order_":5,"city":"杭州","province":"浙江省","geometry":"30.303227,120.17580285","geometry_X":120.17580285,"geometry_Y":30.303227}},{"type":"Feature","id":94,"geometry":{"type":"Point","coordinates":[120.17614865,30.3040202]},"properties":{"FID":94,"sname":"杭州新德佳苑北(公交站)","rname":"杭州1103M路晚高峰(岳帅桥--岳帅桥)","order_":6,"city":"杭州","province":"浙江省","geometry":"30.3040202,120.17614865","geometry_X":120.17614865,"geometry_Y":30.3040202}},{"type":"Feature","id":95,"geometry":{"type":"Point","coordinates":[120.17776606,30.303967790000002]},"properties":{"FID":95,"sname":"杭州都会公寓西门(招呼站)(公交站)","rname":"杭州1103M路晚高峰(岳帅桥--岳帅桥)","order_":7,"city":"杭州","province":"浙江省","geometry":"30.30396779,120.17776606","geometry_X":120.17776606,"geometry_Y":30.303967790000002}},{"type":"Feature","id":96,"geometry":{"type":"Point","coordinates":[120.17925834,30.303327599999999]},"properties":{"FID":96,"sname":"杭州王公桥(公交站)","rname":"杭州1103M路晚高峰(岳帅桥--岳帅桥)","order_":8,"city":"杭州","province":"浙江省","geometry":"30.3033276,120.17925834","geometry_X":120.17925834,"geometry_Y":30.303327599999999}},{"type":"Feature","id":97,"geometry":{"type":"Point","coordinates":[120.17972978,30.300441209999999]},"properties":{"FID":97,"sname":"杭州诗乐华庭(招呼站)(公交站)","rname":"杭州1103M路晚高峰(岳帅桥--岳帅桥)","order_":9,"city":"杭州","province":"浙江省","geometry":"30.30044121,120.17972978","geometry_X":120.17972978,"geometry_Y":30.300441209999999}},{"type":"Feature","id":98,"geometry":{"type":"Point","coordinates":[120.17883128,30.298759329999999]},"properties":{"FID":98,"sname":"杭州熙晖府(招呼站)(公交站)","rname":"杭州1103M路晚高峰(岳帅桥--岳帅桥)","order_":10,"city":"杭州","province":"浙江省","geometry":"30.29875933,120.17883128","geometry_X":120.17883128,"geometry_Y":30.298759329999999}},{"type":"Feature","id":99,"geometry":{"type":"Point","coordinates":[120.17647589000001,30.29662342]},"properties":{"FID":99,"sname":"杭州岳帅桥(公交站)","rname":"杭州1103M路晚高峰(岳帅桥--岳帅桥)","order_":11,"city":"杭州","province":"浙江省","geometry":"30.29662342,120.17647589","geometry_X":120.17647589000001,"geometry_Y":30.29662342}},{"type":"Feature","id":100,"geometry":{"type":"Point","coordinates":[120.17670524,30.30417585]},"properties":{"FID":100,"sname":"杭州新德佳苑北(公交站)","rname":"杭州1103M路早高峰(新德佳苑北--新德佳苑北)","order_":1,"city":"杭州","province":"浙江省","geometry":"30.30417585,120.17670524","geometry_X":120.17670524,"geometry_Y":30.30417585}},{"type":"Feature","id":101,"geometry":{"type":"Point","coordinates":[120.17773903,30.304045110000001]},"properties":{"FID":101,"sname":"杭州都会公寓西门(招呼站)(公交站)","rname":"杭州1103M路早高峰(新德佳苑北--新德佳苑北)","order_":2,"city":"杭州","province":"浙江省","geometry":"30.30404511,120.17773903","geometry_X":120.17773903,"geometry_Y":30.304045110000001}},{"type":"Feature","id":102,"geometry":{"type":"Point","coordinates":[120.17932845999999,30.30334886]},"properties":{"FID":102,"sname":"杭州王公桥(公交站)","rname":"杭州1103M路早高峰(新德佳苑北--新德佳苑北)","order_":3,"city":"杭州","province":"浙江省","geometry":"30.30334886,120.17932846","geometry_X":120.17932845999999,"geometry_Y":30.30334886}},{"type":"Feature","id":103,"geometry":{"type":"Point","coordinates":[120.17972983,30.300439669999999]},"properties":{"FID":103,"sname":"杭州诗乐华庭(招呼站)(公交站)","rname":"杭州1103M路早高峰(新德佳苑北--新德佳苑北)","order_":4,"city":"杭州","province":"浙江省","geometry":"30.30043967,120.17972983","geometry_X":120.17972983,"geometry_Y":30.300439669999999}},{"type":"Feature","id":104,"geometry":{"type":"Point","coordinates":[120.17883123,30.298759969999999]},"properties":{"FID":104,"sname":"杭州熙晖府(招呼站)(公交站)","rname":"杭州1103M路早高峰(新德佳苑北--新德佳苑北)","order_":5,"city":"杭州","province":"浙江省","geometry":"30.29875997,120.17883123","geometry_X":120.17883123,"geometry_Y":30.298759969999999}},{"type":"Feature","id":105,"geometry":{"type":"Point","coordinates":[120.17750066000001,30.298225850000001]},"properties":{"FID":105,"sname":"杭州岳帅桥(公交站)","rname":"杭州1103M路早高峰(新德佳苑北--新德佳苑北)","order_":6,"city":"杭州","province":"浙江省","geometry":"30.29822585,120.17750066","geometry_X":120.17750066000001,"geometry_Y":30.298225850000001}},{"type":"Feature","id":106,"geometry":{"type":"Point","coordinates":[120.17580031999999,30.29603826]},"properties":{"FID":106,"sname":"杭州地铁杭氧站A口(公交站)","rname":"杭州1103M路早高峰(新德佳苑北--新德佳苑北)","order_":7,"city":"杭州","province":"浙江省","geometry":"30.29603826,120.17580032","geometry_X":120.17580031999999,"geometry_Y":30.29603826}},{"type":"Feature","id":107,"geometry":{"type":"Point","coordinates":[120.17447368000001,30.296867070000001]},"properties":{"FID":107,"sname":"杭州杭氧站(公交站)","rname":"杭州1103M路早高峰(新德佳苑北--新德佳苑北)","order_":8,"city":"杭州","province":"浙江省","geometry":"30.29686707,120.17447368","geometry_X":120.17447368000001,"geometry_Y":30.296867070000001}},{"type":"Feature","id":108,"geometry":{"type":"Point","coordinates":[120.17479186,30.302100329999998]},"properties":{"FID":108,"sname":"杭州杭氧桥(公交站)","rname":"杭州1103M路早高峰(新德佳苑北--新德佳苑北)","order_":9,"city":"杭州","province":"浙江省","geometry":"30.30210033,120.17479186","geometry_X":120.17479186,"geometry_Y":30.302100329999998}},{"type":"Feature","id":109,"geometry":{"type":"Point","coordinates":[120.17580258,30.303228499999999]},"properties":{"FID":109,"sname":"杭州新德佳苑(公交站)","rname":"杭州1103M路早高峰(新德佳苑北--新德佳苑北)","order_":10,"city":"杭州","province":"浙江省","geometry":"30.3032285,120.17580258","geometry_X":120.17580258,"geometry_Y":30.303228499999999}},{"type":"Feature","id":110,"geometry":{"type":"Point","coordinates":[120.17668353000001,30.304167459999999]},"properties":{"FID":110,"sname":"杭州新德佳苑北(公交站)","rname":"杭州1103M路早高峰(新德佳苑北--新德佳苑北)","order_":11,"city":"杭州","province":"浙江省","geometry":"30.30416746,120.17668353","geometry_X":120.17668353000001,"geometry_Y":30.304167459999999}},{"type":"Feature","id":111,"geometry":{"type":"Point","coordinates":[120.16508876,30.318218989999998]},"properties":{"FID":111,"sname":"杭州西文街公交站(公交站)","rname":"杭州1104M路(西文街公交站--香源公寓)","order_":1,"city":"杭州","province":"浙江省","geometry":"30.31821899,120.16508876","geometry_X":120.16508876,"geometry_Y":30.318218989999998}},{"type":"Feature","id":112,"geometry":{"type":"Point","coordinates":[120.16419662,30.31701687]},"properties":{"FID":112,"sname":"杭州方圆府1幢(招呼站)(公交站)","rname":"杭州1104M路(西文街公交站--香源公寓)","order_":2,"city":"杭州","province":"浙江省","geometry":"30.31701687,120.16419662","geometry_X":120.16419662,"geometry_Y":30.31701687}},{"type":"Feature","id":113,"geometry":{"type":"Point","coordinates":[120.1617895,30.32008162]},"properties":{"FID":113,"sname":"杭州水印康庭21幢(招呼站)(公交站)","rname":"杭州1104M路(西文街公交站--香源公寓)","order_":3,"city":"杭州","province":"浙江省","geometry":"30.32008162,120.1617895","geometry_X":120.1617895,"geometry_Y":30.32008162}},{"type":"Feature","id":114,"geometry":{"type":"Point","coordinates":[120.16163286,30.32130312]},"properties":{"FID":114,"sname":"杭州漾河公寓(公交站)","rname":"杭州1104M路(西文街公交站--香源公寓)","order_":4,"city":"杭州","province":"浙江省","geometry":"30.32130312,120.16163286","geometry_X":120.16163286,"geometry_Y":30.32130312}},{"type":"Feature","id":115,"geometry":{"type":"Point","coordinates":[120.16348001,30.322837289999999]},"properties":{"FID":115,"sname":"杭州漾河人家(公交站)","rname":"杭州1104M路(西文街公交站--香源公寓)","order_":5,"city":"杭州","province":"浙江省","geometry":"30.32283729,120.16348001","geometry_X":120.16348001,"geometry_Y":30.322837289999999}},{"type":"Feature","id":116,"geometry":{"type":"Point","coordinates":[120.16513659,30.323756459999998]},"properties":{"FID":116,"sname":"杭州西文北苑(招呼站)(公交站)","rname":"杭州1104M路(西文街公交站--香源公寓)","order_":6,"city":"杭州","province":"浙江省","geometry":"30.32375646,120.16513659","geometry_X":120.16513659,"geometry_Y":30.323756459999998}},{"type":"Feature","id":117,"geometry":{"type":"Point","coordinates":[120.16504926,30.324794239999999]},"properties":{"FID":117,"sname":"杭州香源公寓(公交站)","rname":"杭州1104M路(西文街公交站--香源公寓)","order_":7,"city":"杭州","province":"浙江省","geometry":"30.32479424,120.16504926","geometry_X":120.16504926,"geometry_Y":30.324794239999999}},{"type":"Feature","id":118,"geometry":{"type":"Point","coordinates":[120.16487170000001,30.324638480000001]},"properties":{"FID":118,"sname":"杭州香源公寓(公交站)","rname":"杭州1104M路(香源公寓--西文街公交站)","order_":1,"city":"杭州","province":"浙江省","geometry":"30.32463848,120.1648717","geometry_X":120.16487170000001,"geometry_Y":30.324638480000001}},{"type":"Feature","id":119,"geometry":{"type":"Point","coordinates":[120.16528089000001,30.323609090000001]},"properties":{"FID":119,"sname":"杭州西文北苑(招呼站)(公交站)","rname":"杭州1104M路(香源公寓--西文街公交站)","order_":2,"city":"杭州","province":"浙江省","geometry":"30.32360909,120.16528089","geometry_X":120.16528089000001,"geometry_Y":30.323609090000001}},{"type":"Feature","id":120,"geometry":{"type":"Point","coordinates":[120.16290806000001,30.32279905]},"properties":{"FID":120,"sname":"杭州漾河人家(公交站)","rname":"杭州1104M路(香源公寓--西文街公交站)","order_":3,"city":"杭州","province":"浙江省","geometry":"30.32279905,120.16290806","geometry_X":120.16290806000001,"geometry_Y":30.32279905}},{"type":"Feature","id":121,"geometry":{"type":"Point","coordinates":[120.16160365,30.321277940000002]},"properties":{"FID":121,"sname":"杭州漾河公寓(公交站)","rname":"杭州1104M路(香源公寓--西文街公交站)","order_":4,"city":"杭州","province":"浙江省","geometry":"30.32127794,120.16160365","geometry_X":120.16160365,"geometry_Y":30.321277940000002}},{"type":"Feature","id":122,"geometry":{"type":"Point","coordinates":[120.16203871,30.318370460000001]},"properties":{"FID":122,"sname":"杭州西联桥(公交站)","rname":"杭州1104M路(香源公寓--西文街公交站)","order_":5,"city":"杭州","province":"浙江省","geometry":"30.31837046,120.16203871","geometry_X":120.16203871,"geometry_Y":30.318370460000001}},{"type":"Feature","id":123,"geometry":{"type":"Point","coordinates":[120.16508936,30.318218330000001]},"properties":{"FID":123,"sname":"杭州西文街公交站(公交站)","rname":"杭州1104M路(香源公寓--西文街公交站)","order_":6,"city":"杭州","province":"浙江省","geometry":"30.31821833,120.16508936","geometry_X":120.16508936,"geometry_Y":30.318218330000001}},{"type":"Feature","id":124,"geometry":{"type":"Point","coordinates":[120.16506114000001,30.32480382]},"properties":{"FID":124,"sname":"杭州香源公寓(公交站)","rname":"杭州1105M路(香源公寓--地铁新天地街站A口)","order_":1,"city":"杭州","province":"浙江省","geometry":"30.32480382,120.16506114","geometry_X":120.16506114000001,"geometry_Y":30.32480382}},{"type":"Feature","id":125,"geometry":{"type":"Point","coordinates":[120.16637857000001,30.325995710000001]},"properties":{"FID":125,"sname":"杭州美岸栖庭南门(招呼站)(公交站)","rname":"杭州1105M路(香源公寓--地铁新天地街站A口)","order_":2,"city":"杭州","province":"浙江省","geometry":"30.32599571,120.16637857","geometry_X":120.16637857000001,"geometry_Y":30.325995710000001}},{"type":"Feature","id":126,"geometry":{"type":"Point","coordinates":[120.16759616,30.325628200000001]},"properties":{"FID":126,"sname":"杭州颜家港桥(公交站)","rname":"杭州1105M路(香源公寓--地铁新天地街站A口)","order_":3,"city":"杭州","province":"浙江省","geometry":"30.3256282,120.16759616","geometry_X":120.16759616,"geometry_Y":30.325628200000001}},{"type":"Feature","id":127,"geometry":{"type":"Point","coordinates":[120.17098794,30.322166240000001]},"properties":{"FID":127,"sname":"杭州重机巷(公交站)","rname":"杭州1105M路(香源公寓--地铁新天地街站A口)","order_":4,"city":"杭州","province":"浙江省","geometry":"30.32216624,120.17098794","geometry_X":120.17098794,"geometry_Y":30.322166240000001}},{"type":"Feature","id":128,"geometry":{"type":"Point","coordinates":[120.17431315,30.324354849999999]},"properties":{"FID":128,"sname":"杭州地铁新天地街站A口(公交站)","rname":"杭州1105M路(香源公寓--地铁新天地街站A口)","order_":5,"city":"杭州","province":"浙江省","geometry":"30.32435485,120.17431315","geometry_X":120.17431315,"geometry_Y":30.324354849999999}},{"type":"Feature","id":129,"geometry":{"type":"Point","coordinates":[120.17431316,30.32435624]},"properties":{"FID":129,"sname":"杭州地铁新天地街站A口(公交站)","rname":"杭州1105M路(地铁新天地街站A口--香源公寓)","order_":1,"city":"杭州","province":"浙江省","geometry":"30.32435624,120.17431316","geometry_X":120.17431316,"geometry_Y":30.32435624}},{"type":"Feature","id":130,"geometry":{"type":"Point","coordinates":[120.17386428,30.327692450000001]},"properties":{"FID":130,"sname":"杭州褚家桥(公交站)","rname":"杭州1105M路(地铁新天地街站A口--香源公寓)","order_":2,"city":"杭州","province":"浙江省","geometry":"30.32769245,120.17386428","geometry_X":120.17386428,"geometry_Y":30.327692450000001}},{"type":"Feature","id":131,"geometry":{"type":"Point","coordinates":[120.16960781,30.328566179999999]},"properties":{"FID":131,"sname":"杭州石祥路东新路口(公交站)","rname":"杭州1105M路(地铁新天地街站A口--香源公寓)","order_":3,"city":"杭州","province":"浙江省","geometry":"30.32856618,120.16960781","geometry_X":120.16960781,"geometry_Y":30.328566179999999}},{"type":"Feature","id":132,"geometry":{"type":"Point","coordinates":[120.16638254,30.325997709999999]},"properties":{"FID":132,"sname":"杭州美岸栖庭南门(招呼站)(公交站)","rname":"杭州1105M路(地铁新天地街站A口--香源公寓)","order_":4,"city":"杭州","province":"浙江省","geometry":"30.32599771,120.16638254","geometry_X":120.16638254,"geometry_Y":30.325997709999999}},{"type":"Feature","id":133,"geometry":{"type":"Point","coordinates":[120.164872,30.324638239999999]},"properties":{"FID":133,"sname":"杭州香源公寓(公交站)","rname":"杭州1105M路(地铁新天地街站A口--香源公寓)","order_":5,"city":"杭州","province":"浙江省","geometry":"30.32463824,120.164872","geometry_X":120.164872,"geometry_Y":30.324638239999999}},{"type":"Feature","id":134,"geometry":{"type":"Point","coordinates":[120.18457128999999,30.34785772]},"properties":{"FID":134,"sname":"杭州永华街竹青路口(公交站)","rname":"杭州1107M路高峰线(永华街竹青路口--地铁汽轮广场B口)","order_":1,"city":"杭州","province":"浙江省","geometry":"30.34785772,120.18457129","geometry_X":120.18457128999999,"geometry_Y":30.34785772}},{"type":"Feature","id":135,"geometry":{"type":"Point","coordinates":[120.1826477,30.345925319999999]},"properties":{"FID":135,"sname":"杭州永祥街回龙路口(公交站)","rname":"杭州1107M路高峰线(永华街竹青路口--地铁汽轮广场B口)","order_":2,"city":"杭州","province":"浙江省","geometry":"30.34592532,120.1826477","geometry_X":120.1826477,"geometry_Y":30.345925319999999}},{"type":"Feature","id":136,"geometry":{"type":"Point","coordinates":[120.18153229000001,30.344058539999999]},"properties":{"FID":136,"sname":"杭州北景月桂苑(公交站)","rname":"杭州1107M路高峰线(永华街竹青路口--地铁汽轮广场B口)","order_":3,"city":"杭州","province":"浙江省","geometry":"30.34405854,120.18153229","geometry_X":120.18153229000001,"geometry_Y":30.344058539999999}},{"type":"Feature","id":137,"geometry":{"type":"Point","coordinates":[120.17927383999999,30.34340577]},"properties":{"FID":137,"sname":"杭州都市枫林(招呼站)(公交站)","rname":"杭州1107M路高峰线(永华街竹青路口--地铁汽轮广场B口)","order_":4,"city":"杭州","province":"浙江省","geometry":"30.34340577,120.17927384","geometry_X":120.17927383999999,"geometry_Y":30.34340577}},{"type":"Feature","id":138,"geometry":{"type":"Point","coordinates":[120.1789685,30.341331100000001]},"properties":{"FID":138,"sname":"杭州北景园小区187路起点(招呼站)(公交站)","rname":"杭州1107M路高峰线(永华街竹青路口--地铁汽轮广场B口)","order_":5,"city":"杭州","province":"浙江省","geometry":"30.3413311,120.1789685","geometry_X":120.1789685,"geometry_Y":30.341331100000001}},{"type":"Feature","id":139,"geometry":{"type":"Point","coordinates":[120.18088864000001,30.34105735]},"properties":{"FID":139,"sname":"杭州北景园中心广场(招呼站)(公交站)","rname":"杭州1107M路高峰线(永华街竹青路口--地铁汽轮广场B口)","order_":6,"city":"杭州","province":"浙江省","geometry":"30.34105735,120.18088864","geometry_X":120.18088864000001,"geometry_Y":30.34105735}},{"type":"Feature","id":140,"geometry":{"type":"Point","coordinates":[120.18155217,30.339584049999999]},"properties":{"FID":140,"sname":"杭州北景菊香苑(公交站)","rname":"杭州1107M路高峰线(永华街竹青路口--地铁汽轮广场B口)","order_":7,"city":"杭州","province":"浙江省","geometry":"30.33958405,120.18155217","geometry_X":120.18155217,"geometry_Y":30.339584049999999}},{"type":"Feature","id":141,"geometry":{"type":"Point","coordinates":[120.18252547,30.338706899999998]},"properties":{"FID":141,"sname":"杭州汽轮广场(公交站)","rname":"杭州1107M路高峰线(永华街竹青路口--地铁汽轮广场B口)","order_":8,"city":"杭州","province":"浙江省","geometry":"30.3387069,120.18252547","geometry_X":120.18252547,"geometry_Y":30.338706899999998}},{"type":"Feature","id":142,"geometry":{"type":"Point","coordinates":[120.18371744,30.33814791]},"properties":{"FID":142,"sname":"杭州地铁汽轮广场B口(公交站)","rname":"杭州1107M路高峰线(永华街竹青路口--地铁汽轮广场B口)","order_":9,"city":"杭州","province":"浙江省","geometry":"30.33814791,120.18371744","geometry_X":120.18371744,"geometry_Y":30.33814791}},{"type":"Feature","id":143,"geometry":{"type":"Point","coordinates":[120.18372157,30.338195089999999]},"properties":{"FID":143,"sname":"杭州地铁汽轮广场站B口(公交站)","rname":"杭州1107M路高峰线(地铁汽轮广场站B口--永华街竹青路口)","order_":1,"city":"杭州","province":"浙江省","geometry":"30.33819509,120.18372157","geometry_X":120.18372157,"geometry_Y":30.338195089999999}},{"type":"Feature","id":144,"geometry":{"type":"Point","coordinates":[120.18285299,30.33851074]},"properties":{"FID":144,"sname":"杭州汽轮广场(公交站)","rname":"杭州1107M路高峰线(地铁汽轮广场站B口--永华街竹青路口)","order_":2,"city":"杭州","province":"浙江省","geometry":"30.33851074,120.18285299","geometry_X":120.18285299,"geometry_Y":30.33851074}},{"type":"Feature","id":145,"geometry":{"type":"Point","coordinates":[120.18154846,30.339714390000001]},"properties":{"FID":145,"sname":"杭州北景菊香苑(公交站)","rname":"杭州1107M路高峰线(地铁汽轮广场站B口--永华街竹青路口)","order_":3,"city":"杭州","province":"浙江省","geometry":"30.33971439,120.18154846","geometry_X":120.18154846,"geometry_Y":30.339714390000001}},{"type":"Feature","id":146,"geometry":{"type":"Point","coordinates":[120.18094696999999,30.341111130000002]},"properties":{"FID":146,"sname":"杭州北景竹邻苑(公交站)","rname":"杭州1107M路高峰线(地铁汽轮广场站B口--永华街竹青路口)","order_":4,"city":"杭州","province":"浙江省","geometry":"30.34111113,120.18094697","geometry_X":120.18094696999999,"geometry_Y":30.341111130000002}},{"type":"Feature","id":147,"geometry":{"type":"Point","coordinates":[120.17896918,30.341460919999999]},"properties":{"FID":147,"sname":"杭州北景园小区187路起点(招呼站)(公交站)","rname":"杭州1107M路高峰线(地铁汽轮广场站B口--永华街竹青路口)","order_":5,"city":"杭州","province":"浙江省","geometry":"30.34146092,120.17896918","geometry_X":120.17896918,"geometry_Y":30.341460919999999}},{"type":"Feature","id":148,"geometry":{"type":"Point","coordinates":[120.17927344,30.343406940000001]},"properties":{"FID":148,"sname":"杭州都市枫林(招呼站)(公交站)","rname":"杭州1107M路高峰线(地铁汽轮广场站B口--永华街竹青路口)","order_":6,"city":"杭州","province":"浙江省","geometry":"30.34340694,120.17927344","geometry_X":120.17927344,"geometry_Y":30.343406940000001}},{"type":"Feature","id":149,"geometry":{"type":"Point","coordinates":[120.18153307,30.344066099999999]},"properties":{"FID":149,"sname":"杭州北景月桂苑(公交站)","rname":"杭州1107M路高峰线(地铁汽轮广场站B口--永华街竹青路口)","order_":7,"city":"杭州","province":"浙江省","geometry":"30.3440661,120.18153307","geometry_X":120.18153307,"geometry_Y":30.344066099999999}},{"type":"Feature","id":150,"geometry":{"type":"Point","coordinates":[120.18321358999999,30.34581798]},"properties":{"FID":150,"sname":"杭州永祥街回龙路口(公交站)","rname":"杭州1107M路高峰线(地铁汽轮广场站B口--永华街竹青路口)","order_":8,"city":"杭州","province":"浙江省","geometry":"30.34581798,120.18321359","geometry_X":120.18321358999999,"geometry_Y":30.34581798}},{"type":"Feature","id":151,"geometry":{"type":"Point","coordinates":[120.184679,30.347853400000002]},"properties":{"FID":151,"sname":"杭州永华街竹青路口(公交站)","rname":"杭州1107M路高峰线(地铁汽轮广场站B口--永华街竹青路口)","order_":9,"city":"杭州","province":"浙江省","geometry":"30.3478534,120.184679","geometry_X":120.184679,"geometry_Y":30.347853400000002}},{"type":"Feature","id":152,"geometry":{"type":"Point","coordinates":[120.16086731,30.30666476]},"properties":{"FID":152,"sname":"杭州杨家里(公交站)","rname":"杭州1110M路社区接驳巴士/1110M路社区便利巴士(杨家里--东新路瑞银街口)","order_":1,"city":"杭州","province":"浙江省","geometry":"30.30666476,120.16086731","geometry_X":120.16086731,"geometry_Y":30.30666476}},{"type":"Feature","id":153,"geometry":{"type":"Point","coordinates":[120.1587775,30.308199599999998]},"properties":{"FID":153,"sname":"杭州香积寺路白石巷口(公交站)","rname":"杭州1110M路社区接驳巴士/1110M路社区便利巴士(杨家里--东新路瑞银街口)","order_":2,"city":"杭州","province":"浙江省","geometry":"30.3081996,120.1587775","geometry_X":120.1587775,"geometry_Y":30.308199599999998}},{"type":"Feature","id":154,"geometry":{"type":"Point","coordinates":[120.16088833000001,30.308810449999999]},"properties":{"FID":154,"sname":"杭州三塘南村(公交站)","rname":"杭州1110M路社区接驳巴士/1110M路社区便利巴士(杨家里--东新路瑞银街口)","order_":3,"city":"杭州","province":"浙江省","geometry":"30.30881045,120.16088833","geometry_X":120.16088833000001,"geometry_Y":30.308810449999999}},{"type":"Feature","id":155,"geometry":{"type":"Point","coordinates":[120.16387194000001,30.309334740000001]},"properties":{"FID":155,"sname":"杭州三塘小区(公交站)","rname":"杭州1110M路社区接驳巴士/1110M路社区便利巴士(杨家里--东新路瑞银街口)","order_":4,"city":"杭州","province":"浙江省","geometry":"30.30933474,120.16387194","geometry_X":120.16387194000001,"geometry_Y":30.309334740000001}},{"type":"Feature","id":156,"geometry":{"type":"Point","coordinates":[120.16608358000001,30.309692380000001]},"properties":{"FID":156,"sname":"杭州三塘沁园(公交站)","rname":"杭州1110M路社区接驳巴士/1110M路社区便利巴士(杨家里--东新路瑞银街口)","order_":5,"city":"杭州","province":"浙江省","geometry":"30.30969238,120.16608358","geometry_X":120.16608358000001,"geometry_Y":30.309692380000001}},{"type":"Feature","id":157,"geometry":{"type":"Point","coordinates":[120.16726636999999,30.309894669999998]},"properties":{"FID":157,"sname":"杭州三塘竹苑(公交站)","rname":"杭州1110M路社区接驳巴士/1110M路社区便利巴士(杨家里--东新路瑞银街口)","order_":6,"city":"杭州","province":"浙江省","geometry":"30.30989467,120.16726637","geometry_X":120.16726636999999,"geometry_Y":30.309894669999998}},{"type":"Feature","id":158,"geometry":{"type":"Point","coordinates":[120.17112922,30.311410899999998]},"properties":{"FID":158,"sname":"杭州颜家村(公交站)","rname":"杭州1110M路社区接驳巴士/1110M路社区便利巴士(杨家里--东新路瑞银街口)","order_":7,"city":"杭州","province":"浙江省","geometry":"30.3114109,120.17112922","geometry_X":120.17112922,"geometry_Y":30.311410899999998}},{"type":"Feature","id":159,"geometry":{"type":"Point","coordinates":[120.17043149,30.314358540000001]},"properties":{"FID":159,"sname":"杭州桑湾里(公交站)","rname":"杭州1110M路社区接驳巴士/1110M路社区便利巴士(杨家里--东新路瑞银街口)","order_":8,"city":"杭州","province":"浙江省","geometry":"30.31435854,120.17043149","geometry_X":120.17043149,"geometry_Y":30.314358540000001}},{"type":"Feature","id":160,"geometry":{"type":"Point","coordinates":[120.17132728,30.318272879999999]},"properties":{"FID":160,"sname":"杭州沈家路东新路口(公交站)","rname":"杭州1110M路社区接驳巴士/1110M路社区便利巴士(杨家里--东新路瑞银街口)","order_":9,"city":"杭州","province":"浙江省","geometry":"30.31827288,120.17132728","geometry_X":120.17132728,"geometry_Y":30.318272879999999}},{"type":"Feature","id":161,"geometry":{"type":"Point","coordinates":[120.1757441,30.31818449]},"properties":{"FID":161,"sname":"杭州沈家村(公交站)","rname":"杭州1110M路社区接驳巴士/1110M路社区便利巴士(杨家里--东新路瑞银街口)","order_":10,"city":"杭州","province":"浙江省","geometry":"30.31818449,120.1757441","geometry_X":120.1757441,"geometry_Y":30.31818449}},{"type":"Feature","id":162,"geometry":{"type":"Point","coordinates":[120.17662788,30.32184904]},"properties":{"FID":162,"sname":"杭州沈北桥(公交站)","rname":"杭州1110M路社区接驳巴士/1110M路社区便利巴士(杨家里--东新路瑞银街口)","order_":11,"city":"杭州","province":"浙江省","geometry":"30.32184904,120.17662788","geometry_X":120.17662788,"geometry_Y":30.32184904}},{"type":"Feature","id":163,"geometry":{"type":"Point","coordinates":[120.17417227999999,30.324571169999999]},"properties":{"FID":163,"sname":"杭州地铁新天地街站A口(公交站)","rname":"杭州1110M路社区接驳巴士/1110M路社区便利巴士(杨家里--东新路瑞银街口)","order_":12,"city":"杭州","province":"浙江省","geometry":"30.32457117,120.17417228","geometry_X":120.17417227999999,"geometry_Y":30.324571169999999}},{"type":"Feature","id":164,"geometry":{"type":"Point","coordinates":[120.17190621,30.325201759999999]},"properties":{"FID":164,"sname":"杭州东文街长浜路口(公交站)","rname":"杭州1110M路社区接驳巴士/1110M路社区便利巴士(杨家里--东新路瑞银街口)","order_":13,"city":"杭州","province":"浙江省","geometry":"30.32520176,120.17190621","geometry_X":120.17190621,"geometry_Y":30.325201759999999}},{"type":"Feature","id":165,"geometry":{"type":"Point","coordinates":[120.1690492,30.325205480000001]},"properties":{"FID":165,"sname":"杭州万家星城幼儿园(招呼站)(公交站)","rname":"杭州1110M路社区接驳巴士/1110M路社区便利巴士(杨家里--东新路瑞银街口)","order_":14,"city":"杭州","province":"浙江省","geometry":"30.32520548,120.1690492","geometry_X":120.1690492,"geometry_Y":30.325205480000001}},{"type":"Feature","id":166,"geometry":{"type":"Point","coordinates":[120.16763666999999,30.326136779999999]},"properties":{"FID":166,"sname":"杭州颜家港桥(公交站)","rname":"杭州1110M路社区接驳巴士/1110M路社区便利巴士(杨家里--东新路瑞银街口)","order_":15,"city":"杭州","province":"浙江省","geometry":"30.32613678,120.16763667","geometry_X":120.16763666999999,"geometry_Y":30.326136779999999}},{"type":"Feature","id":167,"geometry":{"type":"Point","coordinates":[120.16777041,30.329424540000002]},"properties":{"FID":167,"sname":"杭州渡船庵西(公交站)","rname":"杭州1110M路社区接驳巴士/1110M路社区便利巴士(杨家里--东新路瑞银街口)","order_":16,"city":"杭州","province":"浙江省","geometry":"30.32942454,120.16777041","geometry_X":120.16777041,"geometry_Y":30.329424540000002}},{"type":"Feature","id":168,"geometry":{"type":"Point","coordinates":[120.16876311,30.330810289999999]},"properties":{"FID":168,"sname":"杭州东新路瑞银街口(公交站)","rname":"杭州1110M路社区接驳巴士/1110M路社区便利巴士(杨家里--东新路瑞银街口)","order_":17,"city":"杭州","province":"浙江省","geometry":"30.33081029,120.16876311","geometry_X":120.16876311,"geometry_Y":30.330810289999999}},{"type":"Feature","id":169,"geometry":{"type":"Point","coordinates":[120.1689396,30.330631709999999]},"properties":{"FID":169,"sname":"杭州东新路瑞银街口(公交站)","rname":"杭州1110M路社区接驳巴士/1110M路社区便利巴士(东新路瑞银街口--杨家里)","order_":1,"city":"杭州","province":"浙江省","geometry":"30.33063171,120.1689396","geometry_X":120.1689396,"geometry_Y":30.330631709999999}},{"type":"Feature","id":170,"geometry":{"type":"Point","coordinates":[120.17156643,30.330321479999999]},"properties":{"FID":170,"sname":"杭州中大银泰北(招呼站)(公交站)","rname":"杭州1110M路社区接驳巴士/1110M路社区便利巴士(东新路瑞银街口--杨家里)","order_":2,"city":"杭州","province":"浙江省","geometry":"30.33032148,120.17156643","geometry_X":120.17156643,"geometry_Y":30.330321479999999}},{"type":"Feature","id":171,"geometry":{"type":"Point","coordinates":[120.17191454,30.327719030000001]},"properties":{"FID":171,"sname":"杭州西文东苑(招呼站)(公交站)","rname":"杭州1110M路社区接驳巴士/1110M路社区便利巴士(东新路瑞银街口--杨家里)","order_":3,"city":"杭州","province":"浙江省","geometry":"30.32771903,120.17191454","geometry_X":120.17191454,"geometry_Y":30.327719030000001}},{"type":"Feature","id":172,"geometry":{"type":"Point","coordinates":[120.17003252000001,30.32636656]},"properties":{"FID":172,"sname":"杭州万家星城西区32幢(招呼站)(公交站)","rname":"杭州1110M路社区接驳巴士/1110M路社区便利巴士(东新路瑞银街口--杨家里)","order_":4,"city":"杭州","province":"浙江省","geometry":"30.32636656,120.17003252","geometry_X":120.17003252000001,"geometry_Y":30.32636656}},{"type":"Feature","id":173,"geometry":{"type":"Point","coordinates":[120.17244470999999,30.32528258]},"properties":{"FID":173,"sname":"杭州东文街长浜路口(公交站)","rname":"杭州1110M路社区接驳巴士/1110M路社区便利巴士(东新路瑞银街口--杨家里)","order_":5,"city":"杭州","province":"浙江省","geometry":"30.32528258,120.17244471","geometry_X":120.17244470999999,"geometry_Y":30.32528258}},{"type":"Feature","id":174,"geometry":{"type":"Point","coordinates":[120.17625434,30.322109990000001]},"properties":{"FID":174,"sname":"杭州沈北桥(公交站)","rname":"杭州1110M路社区接驳巴士/1110M路社区便利巴士(东新路瑞银街口--杨家里)","order_":6,"city":"杭州","province":"浙江省","geometry":"30.32210999,120.17625434","geometry_X":120.17625434,"geometry_Y":30.322109990000001}},{"type":"Feature","id":175,"geometry":{"type":"Point","coordinates":[120.17511767000001,30.31825078]},"properties":{"FID":175,"sname":"杭州沈家村(公交站)","rname":"杭州1110M路社区接驳巴士/1110M路社区便利巴士(东新路瑞银街口--杨家里)","order_":7,"city":"杭州","province":"浙江省","geometry":"30.31825078,120.17511767","geometry_X":120.17511767000001,"geometry_Y":30.31825078}},{"type":"Feature","id":176,"geometry":{"type":"Point","coordinates":[120.17134437,30.318342049999998]},"properties":{"FID":176,"sname":"杭州沈家路东新路口(公交站)","rname":"杭州1110M路社区接驳巴士/1110M路社区便利巴士(东新路瑞银街口--杨家里)","order_":8,"city":"杭州","province":"浙江省","geometry":"30.31834205,120.17134437","geometry_X":120.17134437,"geometry_Y":30.318342049999998}},{"type":"Feature","id":177,"geometry":{"type":"Point","coordinates":[120.16966106,30.31710455]},"properties":{"FID":177,"sname":"杭州桑湾里(公交站)","rname":"杭州1110M路社区接驳巴士/1110M路社区便利巴士(东新路瑞银街口--杨家里)","order_":9,"city":"杭州","province":"浙江省","geometry":"30.31710455,120.16966106","geometry_X":120.16966106,"geometry_Y":30.31710455}},{"type":"Feature","id":178,"geometry":{"type":"Point","coordinates":[120.17069033999999,30.312605980000001]},"properties":{"FID":178,"sname":"杭州颜家村(公交站)","rname":"杭州1110M路社区接驳巴士/1110M路社区便利巴士(东新路瑞银街口--杨家里)","order_":10,"city":"杭州","province":"浙江省","geometry":"30.31260598,120.17069034","geometry_X":120.17069033999999,"geometry_Y":30.312605980000001}},{"type":"Feature","id":179,"geometry":{"type":"Point","coordinates":[120.16752029,30.310025759999998]},"properties":{"FID":179,"sname":"杭州三塘竹苑(公交站)","rname":"杭州1110M路社区接驳巴士/1110M路社区便利巴士(东新路瑞银街口--杨家里)","order_":11,"city":"杭州","province":"浙江省","geometry":"30.31002576,120.16752029","geometry_X":120.16752029,"geometry_Y":30.310025759999998}},{"type":"Feature","id":180,"geometry":{"type":"Point","coordinates":[120.16455277,30.309491439999999]},"properties":{"FID":180,"sname":"杭州三塘小区(公交站)","rname":"杭州1110M路社区接驳巴士/1110M路社区便利巴士(东新路瑞银街口--杨家里)","order_":12,"city":"杭州","province":"浙江省","geometry":"30.30949144,120.16455277","geometry_X":120.16455277,"geometry_Y":30.309491439999999}},{"type":"Feature","id":181,"geometry":{"type":"Point","coordinates":[120.16148946,30.30897294]},"properties":{"FID":181,"sname":"杭州三塘南村(公交站)","rname":"杭州1110M路社区接驳巴士/1110M路社区便利巴士(东新路瑞银街口--杨家里)","order_":13,"city":"杭州","province":"浙江省","geometry":"30.30897294,120.16148946","geometry_X":120.16148946,"geometry_Y":30.30897294}},{"type":"Feature","id":182,"geometry":{"type":"Point","coordinates":[120.16115567999999,30.304648270000001]},"properties":{"FID":182,"sname":"杭州珠埠里(公交站)","rname":"杭州1110M路社区接驳巴士/1110M路社区便利巴士(东新路瑞银街口--杨家里)","order_":14,"city":"杭州","province":"浙江省","geometry":"30.30464827,120.16115568","geometry_X":120.16115567999999,"geometry_Y":30.304648270000001}},{"type":"Feature","id":183,"geometry":{"type":"Point","coordinates":[120.1616846,30.305616489999998]},"properties":{"FID":183,"sname":"杭州大成巷(公交站)","rname":"杭州1110M路社区接驳巴士/1110M路社区便利巴士(东新路瑞银街口--杨家里)","order_":15,"city":"杭州","province":"浙江省","geometry":"30.30561649,120.1616846","geometry_X":120.1616846,"geometry_Y":30.305616489999998}},{"type":"Feature","id":184,"geometry":{"type":"Point","coordinates":[120.16123011000001,30.30674497]},"properties":{"FID":184,"sname":"杭州杨家里(公交站)","rname":"杭州1110M路社区接驳巴士/1110M路社区便利巴士(东新路瑞银街口--杨家里)","order_":16,"city":"杭州","province":"浙江省","geometry":"30.30674497,120.16123011","geometry_X":120.16123011000001,"geometry_Y":30.30674497}},{"type":"Feature","id":185,"geometry":{"type":"Point","coordinates":[120.18136566,30.276381860000001]},"properties":{"FID":185,"sname":"杭州艮山闸(公交站)","rname":"杭州111路大站车(普福家园北区--市一医院)","order_":6,"city":"杭州","province":"浙江省","geometry":"30.27638186,120.18136566","geometry_X":120.18136566,"geometry_Y":30.276381860000001}},{"type":"Feature","id":186,"geometry":{"type":"Point","coordinates":[120.18312441,30.269939170000001]},"properties":{"FID":186,"sname":"杭州市红会医院北(公交站)","rname":"杭州111路大站车(普福家园北区--市一医院)","order_":7,"city":"杭州","province":"浙江省","geometry":"30.26993917,120.18312441","geometry_X":120.18312441,"geometry_Y":30.269939170000001}},{"type":"Feature","id":187,"geometry":{"type":"Point","coordinates":[120.17607766,30.26507728]},"properties":{"FID":187,"sname":"杭州潮鸣寺巷(公交站)","rname":"杭州111路大站车(普福家园北区--市一医院)","order_":8,"city":"杭州","province":"浙江省","geometry":"30.26507728,120.17607766","geometry_X":120.17607766,"geometry_Y":30.26507728}},{"type":"Feature","id":188,"geometry":{"type":"Point","coordinates":[120.17098943000001,30.260399029999999]},"properties":{"FID":188,"sname":"杭州浙医一院(公交站)","rname":"杭州111路大站车(普福家园北区--市一医院)","order_":9,"city":"杭州","province":"浙江省","geometry":"30.26039903,120.17098943","geometry_X":120.17098943000001,"geometry_Y":30.260399029999999}},{"type":"Feature","id":189,"geometry":{"type":"Point","coordinates":[120.17620725,30.265297019999998]},"properties":{"FID":189,"sname":"杭州潮鸣寺巷(公交站)","rname":"杭州111路(市一医院--三福巷公交站)","order_":4,"city":"杭州","province":"浙江省","geometry":"30.26529702,120.17620725","geometry_X":120.17620725,"geometry_Y":30.265297019999998}},{"type":"Feature","id":190,"geometry":{"type":"Point","coordinates":[120.18034856,30.26647964]},"properties":{"FID":190,"sname":"杭州市红会医院(公交站)","rname":"杭州111路(市一医院--三福巷公交站)","order_":5,"city":"杭州","province":"浙江省","geometry":"30.26647964,120.18034856","geometry_X":120.18034856,"geometry_Y":30.26647964}},{"type":"Feature","id":191,"geometry":{"type":"Point","coordinates":[120.18302568999999,30.271405359999999]},"properties":{"FID":191,"sname":"杭州市红会医院北(公交站)","rname":"杭州111路(市一医院--三福巷公交站)","order_":6,"city":"杭州","province":"浙江省","geometry":"30.27140536,120.18302569","geometry_X":120.18302568999999,"geometry_Y":30.271405359999999}},{"type":"Feature","id":192,"geometry":{"type":"Point","coordinates":[120.18159088,30.27618502]},"properties":{"FID":192,"sname":"杭州艮山闸(公交站)","rname":"杭州111路(市一医院--三福巷公交站)","order_":7,"city":"杭州","province":"浙江省","geometry":"30.27618502,120.18159088","geometry_X":120.18159088,"geometry_Y":30.27618502}},{"type":"Feature","id":193,"geometry":{"type":"Point","coordinates":[120.18136434,30.27638108]},"properties":{"FID":193,"sname":"杭州艮山闸(公交站)","rname":"杭州111路大站车(普福家园北区--市一医院)","order_":6,"city":"杭州","province":"浙江省","geometry":"30.27638108,120.18136434","geometry_X":120.18136434,"geometry_Y":30.27638108}},{"type":"Feature","id":194,"geometry":{"type":"Point","coordinates":[120.18312382000001,30.269939600000001]},"properties":{"FID":194,"sname":"杭州市红会医院北(公交站)","rname":"杭州111路大站车(普福家园北区--市一医院)","order_":7,"city":"杭州","province":"浙江省","geometry":"30.2699396,120.18312382","geometry_X":120.18312382000001,"geometry_Y":30.269939600000001}},{"type":"Feature","id":195,"geometry":{"type":"Point","coordinates":[120.17607671,30.265076140000001]},"properties":{"FID":195,"sname":"杭州潮鸣寺巷(公交站)","rname":"杭州111路大站车(普福家园北区--市一医院)","order_":8,"city":"杭州","province":"浙江省","geometry":"30.26507614,120.17607671","geometry_X":120.17607671,"geometry_Y":30.265076140000001}},{"type":"Feature","id":196,"geometry":{"type":"Point","coordinates":[120.17098956,30.26039853]},"properties":{"FID":196,"sname":"杭州浙医一院(公交站)","rname":"杭州111路大站车(普福家园北区--市一医院)","order_":9,"city":"杭州","province":"浙江省","geometry":"30.26039853,120.17098956","geometry_X":120.17098956,"geometry_Y":30.26039853}},{"type":"Feature","id":197,"geometry":{"type":"Point","coordinates":[120.18153286,30.344058019999999]},"properties":{"FID":197,"sname":"杭州北景月桂苑(公交站)","rname":"杭州112M路(青城路公交站--善贤)","order_":11,"city":"杭州","province":"浙江省","geometry":"30.34405802,120.18153286","geometry_X":120.18153286,"geometry_Y":30.344058019999999}},{"type":"Feature","id":198,"geometry":{"type":"Point","coordinates":[120.18156197,30.34224553]},"properties":{"FID":198,"sname":"杭州北景园中心广场东(招呼站)(公交站)","rname":"杭州112M路(青城路公交站--善贤)","order_":12,"city":"杭州","province":"浙江省","geometry":"30.34224553,120.18156197","geometry_X":120.18156197,"geometry_Y":30.34224553}},{"type":"Feature","id":199,"geometry":{"type":"Point","coordinates":[120.18155032,30.33958457]},"properties":{"FID":199,"sname":"杭州北景菊香苑(公交站)","rname":"杭州112M路(青城路公交站--善贤)","order_":13,"city":"杭州","province":"浙江省","geometry":"30.33958457,120.18155032","geometry_X":120.18155032,"geometry_Y":30.33958457}},{"type":"Feature","id":200,"geometry":{"type":"Point","coordinates":[120.17932379,30.337206120000001]},"properties":{"FID":200,"sname":"杭州北景荷风苑(公交站)","rname":"杭州112M路(青城路公交站--善贤)","order_":14,"city":"杭州","province":"浙江省","geometry":"30.33720612,120.17932379","geometry_X":120.17932379,"geometry_Y":30.337206120000001}},{"type":"Feature","id":201,"geometry":{"type":"Point","coordinates":[120.17917427,30.335445029999999]},"properties":{"FID":201,"sname":"杭州北景水镜苑(公交站)","rname":"杭州112M路(青城路公交站--善贤)","order_":15,"city":"杭州","province":"浙江省","geometry":"30.33544503,120.17917427","geometry_X":120.17917427,"geometry_Y":30.335445029999999}},{"type":"Feature","id":202,"geometry":{"type":"Point","coordinates":[120.1811196,30.333926760000001]},"properties":{"FID":202,"sname":"杭州北景芳洲苑南(公交站)","rname":"杭州112M路(青城路公交站--善贤)","order_":16,"city":"杭州","province":"浙江省","geometry":"30.33392676,120.1811196","geometry_X":120.1811196,"geometry_Y":30.333926760000001}},{"type":"Feature","id":203,"geometry":{"type":"Point","coordinates":[120.17787792999999,30.330534270000001]},"properties":{"FID":203,"sname":"杭州甘长村(公交站)","rname":"杭州112M路(青城路公交站--善贤)","order_":17,"city":"杭州","province":"浙江省","geometry":"30.33053427,120.17787793","geometry_X":120.17787792999999,"geometry_Y":30.330534270000001}},{"type":"Feature","id":204,"geometry":{"type":"Point","coordinates":[120.1696065,30.328565080000001]},"properties":{"FID":204,"sname":"杭州石祥路东新路口(公交站)","rname":"杭州112M路(青城路公交站--善贤)","order_":18,"city":"杭州","province":"浙江省","geometry":"30.32856508,120.1696065","geometry_X":120.1696065,"geometry_Y":30.328565080000001}},{"type":"Feature","id":205,"geometry":{"type":"Point","coordinates":[120.16638072000001,30.325997489999999]},"properties":{"FID":205,"sname":"杭州美岸栖庭南门(招呼站)(公交站)","rname":"杭州112M路(青城路公交站--善贤)","order_":19,"city":"杭州","province":"浙江省","geometry":"30.32599749,120.16638072","geometry_X":120.16638072000001,"geometry_Y":30.325997489999999}},{"type":"Feature","id":206,"geometry":{"type":"Point","coordinates":[120.16489056,30.32461593]},"properties":{"FID":206,"sname":"杭州香源公寓(公交站)","rname":"杭州112M路(青城路公交站--善贤)","order_":20,"city":"杭州","province":"浙江省","geometry":"30.32461593,120.16489056","geometry_X":120.16489056,"geometry_Y":30.32461593}},{"type":"Feature","id":207,"geometry":{"type":"Point","coordinates":[120.16528022,30.323609050000002]},"properties":{"FID":207,"sname":"杭州西文北苑(招呼站)(公交站)","rname":"杭州112M路(青城路公交站--善贤)","order_":21,"city":"杭州","province":"浙江省","geometry":"30.32360905,120.16528022","geometry_X":120.16528022,"geometry_Y":30.323609050000002}},{"type":"Feature","id":208,"geometry":{"type":"Point","coordinates":[120.16422801,30.321756329999999]},"properties":{"FID":208,"sname":"杭州西文西苑(公交站)","rname":"杭州112M路(青城路公交站--善贤)","order_":22,"city":"杭州","province":"浙江省","geometry":"30.32175633,120.16422801","geometry_X":120.16422801,"geometry_Y":30.321756329999999}},{"type":"Feature","id":209,"geometry":{"type":"Point","coordinates":[120.16015749,30.319061009999999]},"properties":{"FID":209,"sname":"杭州西联桥(公交站)","rname":"杭州112M路(青城路公交站--善贤)","order_":23,"city":"杭州","province":"浙江省","geometry":"30.31906101,120.16015749","geometry_X":120.16015749,"geometry_Y":30.319061009999999}},{"type":"Feature","id":210,"geometry":{"type":"Point","coordinates":[120.16178963999999,30.320080820000001]},"properties":{"FID":210,"sname":"杭州水印康庭21幢(招呼站)(公交站)","rname":"杭州112M路(善贤--青城路公交站)","order_":2,"city":"杭州","province":"浙江省","geometry":"30.32008082,120.16178964","geometry_X":120.16178963999999,"geometry_Y":30.320080820000001}},{"type":"Feature","id":211,"geometry":{"type":"Point","coordinates":[120.16262938,30.32104378]},"properties":{"FID":211,"sname":"杭州西文西苑(公交站)","rname":"杭州112M路(善贤--青城路公交站)","order_":3,"city":"杭州","province":"浙江省","geometry":"30.32104378,120.16262938","geometry_X":120.16262938,"geometry_Y":30.32104378}},{"type":"Feature","id":212,"geometry":{"type":"Point","coordinates":[120.16763638,30.326136470000002]},"properties":{"FID":212,"sname":"杭州颜家港桥(公交站)","rname":"杭州112M路(善贤--青城路公交站)","order_":4,"city":"杭州","province":"浙江省","geometry":"30.32613647,120.16763638","geometry_X":120.16763638,"geometry_Y":30.326136470000002}},{"type":"Feature","id":213,"geometry":{"type":"Point","coordinates":[120.16916735,30.328194979999999]},"properties":{"FID":213,"sname":"杭州石祥路东新路口(公交站)","rname":"杭州112M路(善贤--青城路公交站)","order_":5,"city":"杭州","province":"浙江省","geometry":"30.32819498,120.16916735","geometry_X":120.16916735,"geometry_Y":30.328194979999999}},{"type":"Feature","id":214,"geometry":{"type":"Point","coordinates":[120.1780005,30.33035284]},"properties":{"FID":214,"sname":"杭州甘长村(公交站)","rname":"杭州112M路(善贤--青城路公交站)","order_":6,"city":"杭州","province":"浙江省","geometry":"30.33035284,120.1780005","geometry_X":120.1780005,"geometry_Y":30.33035284}},{"type":"Feature","id":215,"geometry":{"type":"Point","coordinates":[120.18098956,30.333935700000001]},"properties":{"FID":215,"sname":"杭州北景芳洲苑南(公交站)","rname":"杭州112M路(善贤--青城路公交站)","order_":7,"city":"杭州","province":"浙江省","geometry":"30.3339357,120.18098956","geometry_X":120.18098956,"geometry_Y":30.333935700000001}},{"type":"Feature","id":216,"geometry":{"type":"Point","coordinates":[120.17917822,30.335483740000001]},"properties":{"FID":216,"sname":"杭州北景水镜苑(公交站)","rname":"杭州112M路(善贤--青城路公交站)","order_":8,"city":"杭州","province":"浙江省","geometry":"30.33548374,120.17917822","geometry_X":120.17917822,"geometry_Y":30.335483740000001}},{"type":"Feature","id":217,"geometry":{"type":"Point","coordinates":[120.17934803999999,30.337626109999999]},"properties":{"FID":217,"sname":"杭州北景荷风苑(公交站)","rname":"杭州112M路(善贤--青城路公交站)","order_":9,"city":"杭州","province":"浙江省","geometry":"30.33762611,120.17934804","geometry_X":120.17934803999999,"geometry_Y":30.337626109999999}},{"type":"Feature","id":218,"geometry":{"type":"Point","coordinates":[120.18154929000001,30.339714730000001]},"properties":{"FID":218,"sname":"杭州北景菊香苑(公交站)","rname":"杭州112M路(善贤--青城路公交站)","order_":10,"city":"杭州","province":"浙江省","geometry":"30.33971473,120.18154929","geometry_X":120.18154929000001,"geometry_Y":30.339714730000001}},{"type":"Feature","id":219,"geometry":{"type":"Point","coordinates":[120.18156224000001,30.342168860000001]},"properties":{"FID":219,"sname":"杭州北景园中心广场东(招呼站)(公交站)","rname":"杭州112M路(善贤--青城路公交站)","order_":11,"city":"杭州","province":"浙江省","geometry":"30.34216886,120.18156224","geometry_X":120.18156224000001,"geometry_Y":30.342168860000001}},{"type":"Feature","id":220,"geometry":{"type":"Point","coordinates":[120.18153229000001,30.344065090000001]},"properties":{"FID":220,"sname":"杭州北景月桂苑(公交站)","rname":"杭州112M路(善贤--青城路公交站)","order_":12,"city":"杭州","province":"浙江省","geometry":"30.34406509,120.18153229","geometry_X":120.18153229000001,"geometry_Y":30.344065090000001}},{"type":"Feature","id":221,"geometry":{"type":"Point","coordinates":[120.15911715,30.26432776]},"properties":{"FID":221,"sname":"杭州孩儿巷2(公交站)","rname":"杭州113路公交快线(东冠公交站--孩儿巷2)","order_":21,"city":"杭州","province":"浙江省","geometry":"30.26432776,120.15911715","geometry_X":120.15911715,"geometry_Y":30.26432776}},{"type":"Feature","id":222,"geometry":{"type":"Point","coordinates":[120.15910707,30.264636970000002]},"properties":{"FID":222,"sname":"杭州孩儿巷2(公交站)","rname":"杭州113路公交快线(孩儿巷2--东冠公交站)","order_":1,"city":"杭州","province":"浙江省","geometry":"30.26463697,120.15910707","geometry_X":120.15910707,"geometry_Y":30.264636970000002}},{"type":"Feature","id":223,"geometry":{"type":"Point","coordinates":[120.1648247,30.26149814]},"properties":{"FID":223,"sname":"杭州众安桥北(公交站)","rname":"杭州113路公交快线(孩儿巷2--东冠公交站)","order_":2,"city":"杭州","province":"浙江省","geometry":"30.26149814,120.1648247","geometry_X":120.1648247,"geometry_Y":30.26149814}},{"type":"Feature","id":224,"geometry":{"type":"Point","coordinates":[120.15910765,30.264638619999999]},"properties":{"FID":224,"sname":"杭州孩儿巷(公交站)","rname":"杭州113路快线(省儿保滨江院区--孩儿巷)","order_":5,"city":"杭州","province":"浙江省","geometry":"30.26463862,120.15910765","geometry_X":120.15910765,"geometry_Y":30.264638619999999}},{"type":"Feature","id":225,"geometry":{"type":"Point","coordinates":[120.15911463,30.264584859999999]},"properties":{"FID":225,"sname":"杭州孩儿巷(公交站)","rname":"杭州113路快线(孩儿巷--省儿保滨江院区)","order_":1,"city":"杭州","province":"浙江省","geometry":"30.26458486,120.15911463","geometry_X":120.15911463,"geometry_Y":30.264584859999999}},{"type":"Feature","id":226,"geometry":{"type":"Point","coordinates":[120.16482445,30.261497689999999]},"properties":{"FID":226,"sname":"杭州众安桥北(公交站)","rname":"杭州113路快线(孩儿巷--省儿保滨江院区)","order_":2,"city":"杭州","province":"浙江省","geometry":"30.26149769,120.16482445","geometry_X":120.16482445,"geometry_Y":30.261497689999999}},{"type":"Feature","id":227,"geometry":{"type":"Point","coordinates":[120.17620731,30.26529777]},"properties":{"FID":227,"sname":"杭州潮鸣寺巷(公交站)","rname":"杭州11路(公园路--金色蓝庭公交站)","order_":9,"city":"杭州","province":"浙江省","geometry":"30.26529777,120.17620731","geometry_X":120.17620731,"geometry_Y":30.26529777}},{"type":"Feature","id":228,"geometry":{"type":"Point","coordinates":[120.17422234,30.272434879999999]},"properties":{"FID":228,"sname":"杭州宝善桥(公交站)","rname":"杭州11路(公园路--金色蓝庭公交站)","order_":10,"city":"杭州","province":"浙江省","geometry":"30.27243488,120.17422234","geometry_X":120.17422234,"geometry_Y":30.272434879999999}},{"type":"Feature","id":229,"geometry":{"type":"Point","coordinates":[120.16849449,30.272189999999998]},"properties":{"FID":229,"sname":"杭州市体育馆(公交站)","rname":"杭州11路(公园路--金色蓝庭公交站)","order_":11,"city":"杭州","province":"浙江省","geometry":"30.27219,120.16849449","geometry_X":120.16849449,"geometry_Y":30.272189999999998}},{"type":"Feature","id":230,"geometry":{"type":"Point","coordinates":[120.16040587000001,30.27265998]},"properties":{"FID":230,"sname":"杭州武林广场南(公交站)","rname":"杭州11路(公园路--金色蓝庭公交站)","order_":12,"city":"杭州","province":"浙江省","geometry":"30.27265998,120.16040587","geometry_X":120.16040587000001,"geometry_Y":30.27265998}},{"type":"Feature","id":231,"geometry":{"type":"Point","coordinates":[120.15969380999999,30.272497640000001]},"properties":{"FID":231,"sname":"杭州武林广场南(公交站)","rname":"杭州11路(金色蓝庭公交站--公园路)","order_":14,"city":"杭州","province":"浙江省","geometry":"30.27249764,120.15969381","geometry_X":120.15969380999999,"geometry_Y":30.272497640000001}},{"type":"Feature","id":232,"geometry":{"type":"Point","coordinates":[120.1698007,30.272055989999998]},"properties":{"FID":232,"sname":"杭州市体育馆(公交站)","rname":"杭州11路(金色蓝庭公交站--公园路)","order_":15,"city":"杭州","province":"浙江省","geometry":"30.27205599,120.1698007","geometry_X":120.1698007,"geometry_Y":30.272055989999998}},{"type":"Feature","id":233,"geometry":{"type":"Point","coordinates":[120.17317616,30.27222763]},"properties":{"FID":233,"sname":"杭州宝善桥(公交站)","rname":"杭州11路(金色蓝庭公交站--公园路)","order_":16,"city":"杭州","province":"浙江省","geometry":"30.27222763,120.17317616","geometry_X":120.17317616,"geometry_Y":30.27222763}},{"type":"Feature","id":234,"geometry":{"type":"Point","coordinates":[120.17568489999999,30.270835730000002]},"properties":{"FID":234,"sname":"杭州树园(公交站)","rname":"杭州11路(金色蓝庭公交站--公园路)","order_":17,"city":"杭州","province":"浙江省","geometry":"30.27083573,120.1756849","geometry_X":120.17568489999999,"geometry_Y":30.270835730000002}},{"type":"Feature","id":235,"geometry":{"type":"Point","coordinates":[120.17607657000001,30.265076669999999]},"properties":{"FID":235,"sname":"杭州潮鸣寺巷(公交站)","rname":"杭州11路(金色蓝庭公交站--公园路)","order_":18,"city":"杭州","province":"浙江省","geometry":"30.26507667,120.17607657","geometry_X":120.17607657000001,"geometry_Y":30.265076669999999}},{"type":"Feature","id":236,"geometry":{"type":"Point","coordinates":[120.15180248,30.29108218]},"properties":{"FID":236,"sname":"杭州长板巷(公交站)","rname":"杭州1211路(洋关旧址--地铁沈塘桥站A口)","order_":17,"city":"杭州","province":"浙江省","geometry":"30.29108218,120.15180248","geometry_X":120.15180248,"geometry_Y":30.29108218}},{"type":"Feature","id":237,"geometry":{"type":"Point","coordinates":[120.14839026999999,30.288008049999998]},"properties":{"FID":237,"sname":"杭州红石板新村(公交站)","rname":"杭州1211路(地铁沈塘桥站A口--洋关旧址)","order_":3,"city":"杭州","province":"浙江省","geometry":"30.28800805,120.14839027","geometry_X":120.14839026999999,"geometry_Y":30.288008049999998}},{"type":"Feature","id":238,"geometry":{"type":"Point","coordinates":[120.15274583999999,30.28999525]},"properties":{"FID":238,"sname":"杭州朝晖九区(公交站)","rname":"杭州1211路(地铁沈塘桥站A口--洋关旧址)","order_":4,"city":"杭州","province":"浙江省","geometry":"30.28999525,120.15274584","geometry_X":120.15274583999999,"geometry_Y":30.28999525}},{"type":"Feature","id":239,"geometry":{"type":"Point","coordinates":[120.15289744,30.293414760000001]},"properties":{"FID":239,"sname":"杭州朝晖九区北(公交站)","rname":"杭州1211路(地铁沈塘桥站A口--洋关旧址)","order_":5,"city":"杭州","province":"浙江省","geometry":"30.29341476,120.15289744","geometry_X":120.15289744,"geometry_Y":30.293414760000001}},{"type":"Feature","id":240,"geometry":{"type":"Point","coordinates":[120.20035122,30.34254889]},"properties":{"FID":240,"sname":"杭州华丰路华悦路口(公交站)","rname":"杭州125路(长睦三义总站--打铁关(水务大厦))","order_":16,"city":"杭州","province":"浙江省","geometry":"30.34254889,120.20035122","geometry_X":120.20035122,"geometry_Y":30.34254889}},{"type":"Feature","id":241,"geometry":{"type":"Point","coordinates":[120.19806757000001,30.341751819999999]},"properties":{"FID":241,"sname":"杭州华中路华丰路口(公交站)","rname":"杭州125路(长睦三义总站--打铁关(水务大厦))","order_":17,"city":"杭州","province":"浙江省","geometry":"30.34175182,120.19806757","geometry_X":120.19806757000001,"geometry_Y":30.341751819999999}},{"type":"Feature","id":242,"geometry":{"type":"Point","coordinates":[120.19800253,30.338193270000001]},"properties":{"FID":242,"sname":"杭州太公街(公交站)","rname":"杭州125路(长睦三义总站--打铁关(水务大厦))","order_":18,"city":"杭州","province":"浙江省","geometry":"30.33819327,120.19800253","geometry_X":120.19800253,"geometry_Y":30.338193270000001}},{"type":"Feature","id":243,"geometry":{"type":"Point","coordinates":[120.19765099999999,30.332532749999999]},"properties":{"FID":243,"sname":"杭州华祥桥(公交站)","rname":"杭州125路(长睦三义总站--打铁关(水务大厦))","order_":19,"city":"杭州","province":"浙江省","geometry":"30.33253275,120.197651","geometry_X":120.19765099999999,"geometry_Y":30.332532749999999}},{"type":"Feature","id":244,"geometry":{"type":"Point","coordinates":[120.19727803000001,30.328981639999999]},"properties":{"FID":244,"sname":"杭州杨家春晓东(公交站)","rname":"杭州125路(长睦三义总站--打铁关(水务大厦))","order_":20,"city":"杭州","province":"浙江省","geometry":"30.32898164,120.19727803","geometry_X":120.19727803000001,"geometry_Y":30.328981639999999}},{"type":"Feature","id":245,"geometry":{"type":"Point","coordinates":[120.1968892,30.32518829]},"properties":{"FID":245,"sname":"杭州景洲公寓(公交站)","rname":"杭州125路(长睦三义总站--打铁关(水务大厦))","order_":21,"city":"杭州","province":"浙江省","geometry":"30.32518829,120.1968892","geometry_X":120.1968892,"geometry_Y":30.32518829}},{"type":"Feature","id":246,"geometry":{"type":"Point","coordinates":[120.19248792,30.318530930000001]},"properties":{"FID":246,"sname":"杭州汇丰里(公交站)","rname":"杭州125路(长睦三义总站--打铁关(水务大厦))","order_":22,"city":"杭州","province":"浙江省","geometry":"30.31853093,120.19248792","geometry_X":120.19248792,"geometry_Y":30.318530930000001}},{"type":"Feature","id":247,"geometry":{"type":"Point","coordinates":[120.17835689,30.31502815]},"properties":{"FID":247,"sname":"杭州东新园小区(公交站)","rname":"杭州125路(长睦三义总站--打铁关(水务大厦))","order_":23,"city":"杭州","province":"浙江省","geometry":"30.31502815,120.17835689","geometry_X":120.17835689,"geometry_Y":30.31502815}},{"type":"Feature","id":248,"geometry":{"type":"Point","coordinates":[120.17846385,30.31242744]},"properties":{"FID":248,"sname":"杭州长浜路香积寺路口(公交站)","rname":"杭州125路(长睦三义总站--打铁关(水务大厦))","order_":24,"city":"杭州","province":"浙江省","geometry":"30.31242744,120.17846385","geometry_X":120.17846385,"geometry_Y":30.31242744}},{"type":"Feature","id":249,"geometry":{"type":"Point","coordinates":[120.17387723,30.31070051]},"properties":{"FID":249,"sname":"杭州东新园南门(公交站)","rname":"杭州125路(长睦三义总站--打铁关(水务大厦))","order_":25,"city":"杭州","province":"浙江省","geometry":"30.31070051,120.17387723","geometry_X":120.17387723,"geometry_Y":30.31070051}},{"type":"Feature","id":250,"geometry":{"type":"Point","coordinates":[120.17162806,30.30853557]},"properties":{"FID":250,"sname":"杭州长木桥(公交站)","rname":"杭州125路(长睦三义总站--打铁关(水务大厦))","order_":26,"city":"杭州","province":"浙江省","geometry":"30.30853557,120.17162806","geometry_X":120.17162806,"geometry_Y":30.30853557}},{"type":"Feature","id":251,"geometry":{"type":"Point","coordinates":[120.17327924999999,30.302792440000001]},"properties":{"FID":251,"sname":"杭州东新路德胜路口(公交站)","rname":"杭州125路(长睦三义总站--打铁关(水务大厦))","order_":27,"city":"杭州","province":"浙江省","geometry":"30.30279244,120.17327925","geometry_X":120.17327924999999,"geometry_Y":30.302792440000001}},{"type":"Feature","id":252,"geometry":{"type":"Point","coordinates":[120.17414406,30.29544954]},"properties":{"FID":252,"sname":"杭州杭氧(公交站)","rname":"杭州125路(长睦三义总站--打铁关(水务大厦))","order_":28,"city":"杭州","province":"浙江省","geometry":"30.29544954,120.17414406","geometry_X":120.17414406,"geometry_Y":30.29544954}},{"type":"Feature","id":253,"geometry":{"type":"Point","coordinates":[120.1729741,30.292437199999998]},"properties":{"FID":253,"sname":"杭州打铁关北(公交站)","rname":"杭州125路(长睦三义总站--打铁关(水务大厦))","order_":29,"city":"杭州","province":"浙江省","geometry":"30.2924372,120.1729741","geometry_X":120.1729741,"geometry_Y":30.292437199999998}},{"type":"Feature","id":254,"geometry":{"type":"Point","coordinates":[120.17382237,30.289009440000001]},"properties":{"FID":254,"sname":"杭州地铁打铁关站A口(水务大厦)(公交站)","rname":"杭州125路(长睦三义总站--打铁关(水务大厦))","order_":30,"city":"杭州","province":"浙江省","geometry":"30.28900944,120.17382237","geometry_X":120.17382237,"geometry_Y":30.289009440000001}},{"type":"Feature","id":255,"geometry":{"type":"Point","coordinates":[120.1722123,30.288664319999999]},"properties":{"FID":255,"sname":"杭州打铁关(水务大厦)(公交站)","rname":"杭州125路(长睦三义总站--打铁关(水务大厦))","order_":31,"city":"杭州","province":"浙江省","geometry":"30.28866432,120.1722123","geometry_X":120.1722123,"geometry_Y":30.288664319999999}},{"type":"Feature","id":256,"geometry":{"type":"Point","coordinates":[120.1722128,30.288664170000001]},"properties":{"FID":256,"sname":"杭州打铁关(水务大厦)(公交站)","rname":"杭州125路(打铁关(水务大厦)--长睦三义总站)","order_":1,"city":"杭州","province":"浙江省","geometry":"30.28866417,120.1722128","geometry_X":120.1722128,"geometry_Y":30.288664170000001}},{"type":"Feature","id":257,"geometry":{"type":"Point","coordinates":[120.17301839,30.291956930000001]},"properties":{"FID":257,"sname":"杭州打铁关北(公交站)","rname":"杭州125路(打铁关(水务大厦)--长睦三义总站)","order_":2,"city":"杭州","province":"浙江省","geometry":"30.29195693,120.17301839","geometry_X":120.17301839,"geometry_Y":30.291956930000001}},{"type":"Feature","id":258,"geometry":{"type":"Point","coordinates":[120.17447488000001,30.296867129999999]},"properties":{"FID":258,"sname":"杭州杭氧站(公交站)","rname":"杭州125路(打铁关(水务大厦)--长睦三义总站)","order_":3,"city":"杭州","province":"浙江省","geometry":"30.29686713,120.17447488","geometry_X":120.17447488000001,"geometry_Y":30.296867129999999}},{"type":"Feature","id":259,"geometry":{"type":"Point","coordinates":[120.173489,30.302806239999999]},"properties":{"FID":259,"sname":"杭州东新路德胜路口(公交站)","rname":"杭州125路(打铁关(水务大厦)--长睦三义总站)","order_":4,"city":"杭州","province":"浙江省","geometry":"30.30280624,120.173489","geometry_X":120.173489,"geometry_Y":30.302806239999999}},{"type":"Feature","id":260,"geometry":{"type":"Point","coordinates":[120.17200828999999,30.30759626]},"properties":{"FID":260,"sname":"杭州长木桥(公交站)","rname":"杭州125路(打铁关(水务大厦)--长睦三义总站)","order_":5,"city":"杭州","province":"浙江省","geometry":"30.30759626,120.17200829","geometry_X":120.17200828999999,"geometry_Y":30.30759626}},{"type":"Feature","id":261,"geometry":{"type":"Point","coordinates":[120.17589864999999,30.310626200000002]},"properties":{"FID":261,"sname":"杭州东新园南门(公交站)","rname":"杭州125路(打铁关(水务大厦)--长睦三义总站)","order_":6,"city":"杭州","province":"浙江省","geometry":"30.3106262,120.17589865","geometry_X":120.17589864999999,"geometry_Y":30.310626200000002}},{"type":"Feature","id":262,"geometry":{"type":"Point","coordinates":[120.17860193,30.311861270000001]},"properties":{"FID":262,"sname":"杭州长浜路香积寺路口(公交站)","rname":"杭州125路(打铁关(水务大厦)--长睦三义总站)","order_":7,"city":"杭州","province":"浙江省","geometry":"30.31186127,120.17860193","geometry_X":120.17860193,"geometry_Y":30.311861270000001}},{"type":"Feature","id":263,"geometry":{"type":"Point","coordinates":[120.1784624,30.317079360000001]},"properties":{"FID":263,"sname":"杭州东新园小区2(公交站)","rname":"杭州125路(打铁关(水务大厦)--长睦三义总站)","order_":8,"city":"杭州","province":"浙江省","geometry":"30.31707936,120.1784624","geometry_X":120.1784624,"geometry_Y":30.317079360000001}},{"type":"Feature","id":264,"geometry":{"type":"Point","coordinates":[120.19317827,30.318687229999998]},"properties":{"FID":264,"sname":"杭州汇丰里(公交站)","rname":"杭州125路(打铁关(水务大厦)--长睦三义总站)","order_":9,"city":"杭州","province":"浙江省","geometry":"30.31868723,120.19317827","geometry_X":120.19317827,"geometry_Y":30.318687229999998}},{"type":"Feature","id":265,"geometry":{"type":"Point","coordinates":[120.19700280000001,30.325326230000002]},"properties":{"FID":265,"sname":"杭州景洲公寓(公交站)","rname":"杭州125路(打铁关(水务大厦)--长睦三义总站)","order_":10,"city":"杭州","province":"浙江省","geometry":"30.32532623,120.1970028","geometry_X":120.19700280000001,"geometry_Y":30.325326230000002}},{"type":"Feature","id":266,"geometry":{"type":"Point","coordinates":[120.19738366,30.32886762]},"properties":{"FID":266,"sname":"杭州杨家春晓东(公交站)","rname":"杭州125路(打铁关(水务大厦)--长睦三义总站)","order_":11,"city":"杭州","province":"浙江省","geometry":"30.32886762,120.19738366","geometry_X":120.19738366,"geometry_Y":30.32886762}},{"type":"Feature","id":267,"geometry":{"type":"Point","coordinates":[120.19788968,30.33370575]},"properties":{"FID":267,"sname":"杭州华祥桥(公交站)","rname":"杭州125路(打铁关(水务大厦)--长睦三义总站)","order_":12,"city":"杭州","province":"浙江省","geometry":"30.33370575,120.19788968","geometry_X":120.19788968,"geometry_Y":30.33370575}},{"type":"Feature","id":268,"geometry":{"type":"Point","coordinates":[120.19819179,30.340717040000001]},"properties":{"FID":268,"sname":"杭州太公街(公交站)","rname":"杭州125路(打铁关(水务大厦)--长睦三义总站)","order_":13,"city":"杭州","province":"浙江省","geometry":"30.34071704,120.19819179","geometry_X":120.19819179,"geometry_Y":30.340717040000001}},{"type":"Feature","id":269,"geometry":{"type":"Point","coordinates":[120.19980611,30.342431650000002]},"properties":{"FID":269,"sname":"杭州华丰路华悦路口(公交站)","rname":"杭州125路(打铁关(水务大厦)--长睦三义总站)","order_":14,"city":"杭州","province":"浙江省","geometry":"30.34243165,120.19980611","geometry_X":120.19980611,"geometry_Y":30.342431650000002}},{"type":"Feature","id":270,"geometry":{"type":"Point","coordinates":[120.18136568,30.27638168]},"properties":{"FID":270,"sname":"杭州艮山闸(公交站)","rname":"杭州126B路(杭乔路公交站--武林广场西)","order_":15,"city":"杭州","province":"浙江省","geometry":"30.27638168,120.18136568","geometry_X":120.18136568,"geometry_Y":30.27638168}},{"type":"Feature","id":271,"geometry":{"type":"Point","coordinates":[120.17759857999999,30.272748889999999]},"properties":{"FID":271,"sname":"杭州陈衙营(公交站)","rname":"杭州126B路(杭乔路公交站--武林广场西)","order_":16,"city":"杭州","province":"浙江省","geometry":"30.27274889,120.17759858","geometry_X":120.17759857999999,"geometry_Y":30.272748889999999}},{"type":"Feature","id":272,"geometry":{"type":"Point","coordinates":[120.17422184,30.272434019999999]},"properties":{"FID":272,"sname":"杭州宝善桥(公交站)","rname":"杭州126B路(杭乔路公交站--武林广场西)","order_":17,"city":"杭州","province":"浙江省","geometry":"30.27243402,120.17422184","geometry_X":120.17422184,"geometry_Y":30.272434019999999}},{"type":"Feature","id":273,"geometry":{"type":"Point","coordinates":[120.16849587,30.272189770000001]},"properties":{"FID":273,"sname":"杭州市体育馆(公交站)","rname":"杭州126B路(杭乔路公交站--武林广场西)","order_":18,"city":"杭州","province":"浙江省","geometry":"30.27218977,120.16849587","geometry_X":120.16849587,"geometry_Y":30.272189770000001}},{"type":"Feature","id":274,"geometry":{"type":"Point","coordinates":[120.16040483,30.27266053]},"properties":{"FID":274,"sname":"杭州武林广场南(公交站)","rname":"杭州126B路(杭乔路公交站--武林广场西)","order_":19,"city":"杭州","province":"浙江省","geometry":"30.27266053,120.16040483","geometry_X":120.16040483,"geometry_Y":30.27266053}},{"type":"Feature","id":275,"geometry":{"type":"Point","coordinates":[120.15754123000001,30.273627210000001]},"properties":{"FID":275,"sname":"杭州武林广场西(公交站)","rname":"杭州126B路(杭乔路公交站--武林广场西)","order_":20,"city":"杭州","province":"浙江省","geometry":"30.27362721,120.15754123","geometry_X":120.15754123000001,"geometry_Y":30.273627210000001}},{"type":"Feature","id":276,"geometry":{"type":"Point","coordinates":[120.15754140999999,30.273626910000001]},"properties":{"FID":276,"sname":"杭州武林广场西(公交站)","rname":"杭州126B路(武林广场西--杭乔路公交站)","order_":1,"city":"杭州","province":"浙江省","geometry":"30.27362691,120.15754141","geometry_X":120.15754140999999,"geometry_Y":30.273626910000001}},{"type":"Feature","id":277,"geometry":{"type":"Point","coordinates":[120.15829736000001,30.275563890000001]},"properties":{"FID":277,"sname":"杭州轮船码头(公交站)","rname":"杭州126B路(武林广场西--杭乔路公交站)","order_":2,"city":"杭州","province":"浙江省","geometry":"30.27556389,120.15829736","geometry_X":120.15829736000001,"geometry_Y":30.275563890000001}},{"type":"Feature","id":278,"geometry":{"type":"Point","coordinates":[120.16181847,30.274563220000001]},"properties":{"FID":278,"sname":"杭州小北门(公交站)","rname":"杭州126B路(武林广场西--杭乔路公交站)","order_":3,"city":"杭州","province":"浙江省","geometry":"30.27456322,120.16181847","geometry_X":120.16181847,"geometry_Y":30.274563220000001}},{"type":"Feature","id":279,"geometry":{"type":"Point","coordinates":[120.16980012,30.27205541]},"properties":{"FID":279,"sname":"杭州市体育馆(公交站)","rname":"杭州126B路(武林广场西--杭乔路公交站)","order_":4,"city":"杭州","province":"浙江省","geometry":"30.27205541,120.16980012","geometry_X":120.16980012,"geometry_Y":30.27205541}},{"type":"Feature","id":280,"geometry":{"type":"Point","coordinates":[120.1731771,30.27222866]},"properties":{"FID":280,"sname":"杭州宝善桥(公交站)","rname":"杭州126B路(武林广场西--杭乔路公交站)","order_":5,"city":"杭州","province":"浙江省","geometry":"30.27222866,120.1731771","geometry_X":120.1731771,"geometry_Y":30.27222866}},{"type":"Feature","id":281,"geometry":{"type":"Point","coordinates":[120.17672727999999,30.272595020000001]},"properties":{"FID":281,"sname":"杭州陈衙营(公交站)","rname":"杭州126B路(武林广场西--杭乔路公交站)","order_":6,"city":"杭州","province":"浙江省","geometry":"30.27259502,120.17672728","geometry_X":120.17672727999999,"geometry_Y":30.272595020000001}},{"type":"Feature","id":282,"geometry":{"type":"Point","coordinates":[120.18159174,30.276184959999998]},"properties":{"FID":282,"sname":"杭州艮山闸(公交站)","rname":"杭州126B路(武林广场西--杭乔路公交站)","order_":7,"city":"杭州","province":"浙江省","geometry":"30.27618496,120.18159174","geometry_X":120.18159174,"geometry_Y":30.276184959999998}},{"type":"Feature","id":283,"geometry":{"type":"Point","coordinates":[120.18136566,30.27638177]},"properties":{"FID":283,"sname":"杭州艮山闸(公交站)","rname":"杭州126路(杭乔路公交站--武林广场西)","order_":22,"city":"杭州","province":"浙江省","geometry":"30.27638177,120.18136566","geometry_X":120.18136566,"geometry_Y":30.27638177}},{"type":"Feature","id":284,"geometry":{"type":"Point","coordinates":[120.17759852,30.272747720000002]},"properties":{"FID":284,"sname":"杭州陈衙营(公交站)","rname":"杭州126路(杭乔路公交站--武林广场西)","order_":23,"city":"杭州","province":"浙江省","geometry":"30.27274772,120.17759852","geometry_X":120.17759852,"geometry_Y":30.272747720000002}},{"type":"Feature","id":285,"geometry":{"type":"Point","coordinates":[120.17422211,30.27243528]},"properties":{"FID":285,"sname":"杭州宝善桥(公交站)","rname":"杭州126路(杭乔路公交站--武林广场西)","order_":24,"city":"杭州","province":"浙江省","geometry":"30.27243528,120.17422211","geometry_X":120.17422211,"geometry_Y":30.27243528}},{"type":"Feature","id":286,"geometry":{"type":"Point","coordinates":[120.16849454,30.272189399999998]},"properties":{"FID":286,"sname":"杭州市体育馆(公交站)","rname":"杭州126路(杭乔路公交站--武林广场西)","order_":25,"city":"杭州","province":"浙江省","geometry":"30.2721894,120.16849454","geometry_X":120.16849454,"geometry_Y":30.272189399999998}},{"type":"Feature","id":287,"geometry":{"type":"Point","coordinates":[120.16059851999999,30.272654070000002]},"properties":{"FID":287,"sname":"杭州武林广场南(公交站)","rname":"杭州126路(杭乔路公交站--武林广场西)","order_":26,"city":"杭州","province":"浙江省","geometry":"30.27265407,120.16059852","geometry_X":120.16059851999999,"geometry_Y":30.272654070000002}},{"type":"Feature","id":288,"geometry":{"type":"Point","coordinates":[120.15753961999999,30.273627489999999]},"properties":{"FID":288,"sname":"杭州武林广场西(公交站)","rname":"杭州126路(杭乔路公交站--武林广场西)","order_":27,"city":"杭州","province":"浙江省","geometry":"30.27362749,120.15753962","geometry_X":120.15753961999999,"geometry_Y":30.273627489999999}},{"type":"Feature","id":289,"geometry":{"type":"Point","coordinates":[120.15756668,30.273395149999999]},"properties":{"FID":289,"sname":"杭州武林广场西(公交站)","rname":"杭州126路(武林广场西--杭乔路公交站(途经站))","order_":1,"city":"杭州","province":"浙江省","geometry":"30.27339515,120.15756668","geometry_X":120.15756668,"geometry_Y":30.273395149999999}},{"type":"Feature","id":290,"geometry":{"type":"Point","coordinates":[120.15829648,30.275563210000001]},"properties":{"FID":290,"sname":"杭州轮船码头(公交站)","rname":"杭州126路(武林广场西--杭乔路公交站(途经站))","order_":2,"city":"杭州","province":"浙江省","geometry":"30.27556321,120.15829648","geometry_X":120.15829648,"geometry_Y":30.275563210000001}},{"type":"Feature","id":291,"geometry":{"type":"Point","coordinates":[120.16180271,30.274720899999998]},"properties":{"FID":291,"sname":"杭州小北门(公交站)","rname":"杭州126路(武林广场西--杭乔路公交站(途经站))","order_":3,"city":"杭州","province":"浙江省","geometry":"30.2747209,120.16180271","geometry_X":120.16180271,"geometry_Y":30.274720899999998}},{"type":"Feature","id":292,"geometry":{"type":"Point","coordinates":[120.16979962000001,30.272055940000001]},"properties":{"FID":292,"sname":"杭州市体育馆(公交站)","rname":"杭州126路(武林广场西--杭乔路公交站(途经站))","order_":4,"city":"杭州","province":"浙江省","geometry":"30.27205594,120.16979962","geometry_X":120.16979962000001,"geometry_Y":30.272055940000001}},{"type":"Feature","id":293,"geometry":{"type":"Point","coordinates":[120.17317663999999,30.272229100000001]},"properties":{"FID":293,"sname":"杭州宝善桥(公交站)","rname":"杭州126路(武林广场西--杭乔路公交站(途经站))","order_":5,"city":"杭州","province":"浙江省","geometry":"30.2722291,120.17317664","geometry_X":120.17317663999999,"geometry_Y":30.272229100000001}},{"type":"Feature","id":294,"geometry":{"type":"Point","coordinates":[120.17672709,30.27259578]},"properties":{"FID":294,"sname":"杭州陈衙营(公交站)","rname":"杭州126路(武林广场西--杭乔路公交站(途经站))","order_":6,"city":"杭州","province":"浙江省","geometry":"30.27259578,120.17672709","geometry_X":120.17672709,"geometry_Y":30.27259578}},{"type":"Feature","id":295,"geometry":{"type":"Point","coordinates":[120.18159086999999,30.276185120000001]},"properties":{"FID":295,"sname":"杭州艮山闸(公交站)","rname":"杭州126路(武林广场西--杭乔路公交站(途经站))","order_":7,"city":"杭州","province":"浙江省","geometry":"30.27618512,120.18159087","geometry_X":120.18159086999999,"geometry_Y":30.276185120000001}},{"type":"Feature","id":296,"geometry":{"type":"Point","coordinates":[120.20016984999999,30.342551579999999]},"properties":{"FID":296,"sname":"杭州华丰路华悦路口(公交站)","rname":"杭州128路(丁桥公交站--城站火车站(环城东路))","order_":12,"city":"杭州","province":"浙江省","geometry":"30.34255158,120.20016985","geometry_X":120.20016984999999,"geometry_Y":30.342551579999999}},{"type":"Feature","id":297,"geometry":{"type":"Point","coordinates":[120.19513096999999,30.342504609999999]},"properties":{"FID":297,"sname":"杭州华丰村(公交站)","rname":"杭州128路(丁桥公交站--城站火车站(环城东路))","order_":13,"city":"杭州","province":"浙江省","geometry":"30.34250461,120.19513097","geometry_X":120.19513096999999,"geometry_Y":30.342504609999999}},{"type":"Feature","id":298,"geometry":{"type":"Point","coordinates":[120.18887807999999,30.341818320000002]},"properties":{"FID":298,"sname":"杭州华丰路石桥路口(公交站)","rname":"杭州128路(丁桥公交站--城站火车站(环城东路))","order_":14,"city":"杭州","province":"浙江省","geometry":"30.34181832,120.18887808","geometry_X":120.18887807999999,"geometry_Y":30.341818320000002}},{"type":"Feature","id":299,"geometry":{"type":"Point","coordinates":[120.18749837,30.340416900000001]},"properties":{"FID":299,"sname":"杭州轴承厂(公交站)","rname":"杭州128路(丁桥公交站--城站火车站(环城东路))","order_":15,"city":"杭州","province":"浙江省","geometry":"30.3404169,120.18749837","geometry_X":120.18749837,"geometry_Y":30.340416900000001}},{"type":"Feature","id":300,"geometry":{"type":"Point","coordinates":[120.18858953,30.335001630000001]},"properties":{"FID":300,"sname":"杭州石桥路石祥路口(公交站)","rname":"杭州128路(丁桥公交站--城站火车站(环城东路))","order_":16,"city":"杭州","province":"浙江省","geometry":"30.33500163,120.18858953","geometry_X":120.18858953,"geometry_Y":30.335001630000001}},{"type":"Feature","id":301,"geometry":{"type":"Point","coordinates":[120.18883937,30.330720119999999]},"properties":{"FID":301,"sname":"杭州石桥(公交站)","rname":"杭州128路(丁桥公交站--城站火车站(环城东路))","order_":17,"city":"杭州","province":"浙江省","geometry":"30.33072012,120.18883937","geometry_X":120.18883937,"geometry_Y":30.330720119999999}},{"type":"Feature","id":302,"geometry":{"type":"Point","coordinates":[120.1888407,30.327447599999999]},"properties":{"FID":302,"sname":"杭州纺机厂(公交站)","rname":"杭州128路(丁桥公交站--城站火车站(环城东路))","order_":18,"city":"杭州","province":"浙江省","geometry":"30.3274476,120.1888407","geometry_X":120.1888407,"geometry_Y":30.327447599999999}},{"type":"Feature","id":303,"geometry":{"type":"Point","coordinates":[120.18907971,30.31971879]},"properties":{"FID":303,"sname":"杭州杨家村(公交站)","rname":"杭州128路(丁桥公交站--城站火车站(环城东路))","order_":19,"city":"杭州","province":"浙江省","geometry":"30.31971879,120.18907971","geometry_X":120.18907971,"geometry_Y":30.31971879}},{"type":"Feature","id":304,"geometry":{"type":"Point","coordinates":[120.17760018,30.272748270000001]},"properties":{"FID":304,"sname":"杭州陈衙营(公交站)","rname":"杭州128路(丁桥公交站--城站火车站(环城东路))","order_":26,"city":"杭州","province":"浙江省","geometry":"30.27274827,120.17760018","geometry_X":120.17760018,"geometry_Y":30.272748270000001}},{"type":"Feature","id":305,"geometry":{"type":"Point","coordinates":[120.17568668,30.270834959999998]},"properties":{"FID":305,"sname":"杭州树园(公交站)","rname":"杭州128路(丁桥公交站--城站火车站(环城东路))","order_":27,"city":"杭州","province":"浙江省","geometry":"30.27083496,120.17568668","geometry_X":120.17568668,"geometry_Y":30.270834959999998}},{"type":"Feature","id":306,"geometry":{"type":"Point","coordinates":[120.17608022,30.265066699999998]},"properties":{"FID":306,"sname":"杭州潮鸣寺巷(公交站)","rname":"杭州128路(丁桥公交站--城站火车站(环城东路))","order_":28,"city":"杭州","province":"浙江省","geometry":"30.2650667,120.17608022","geometry_X":120.17608022,"geometry_Y":30.265066699999998}},{"type":"Feature","id":307,"geometry":{"type":"Point","coordinates":[120.17620785,30.26529828]},"properties":{"FID":307,"sname":"杭州潮鸣寺巷(公交站)","rname":"杭州128路(城站火车站(环城东路)--丁桥公交站)","order_":5,"city":"杭州","province":"浙江省","geometry":"30.26529828,120.17620785","geometry_X":120.17620785,"geometry_Y":30.26529828}},{"type":"Feature","id":308,"geometry":{"type":"Point","coordinates":[120.17576784000001,30.271156680000001]},