{
    "type": "FeatureCollection",
    "features": [
      {
        "type": "Feature",
        "id": 0,
        "geometry": {
          "type": "Point",
          "coordinates": [120.162887, 30.263779]
        },
        "properties": {
          "FID": 0,
          "name": "凤起路",
          "lng": 120.162887,
          "lat": 30.263779,
          "address": "地铁1号线;地铁2号线"
        }
      },
      {
        "type": "Feature",
        "id": 1,
        "geometry": {
          "type": "Point",
          "coordinates": [120.179584, 30.321168]
        },
        "properties": {
          "FID": 1,
          "name": "新天地街",
          "lng": 120.179584,
          "lat": 30.321168,
          "address": "地铁3号线;地铁4号线"
        }
      },
      {
        "type": "Feature",
        "id": 2,
        "geometry": {
          "type": "Point",
          "coordinates": [120.188317, 30.334899]
        },
        "properties": {
          "FID": 2,
          "name": "汽轮广场",
          "lng": 120.188317,
          "lat": 30.334899,
          "address": "地铁3号线"
        }
      },
      {
        "type": "Feature",
        "id": 3,
        "geometry": {
          "type": "Point",
          "coordinates": [120.150223, 30.280146]
        },
        "properties": {
          "FID": 3,
          "name": "沈塘桥",
          "lng": 120.150223,
          "lat": 30.280146,
          "address": "地铁2号线;地铁19号线"
        }
      },
      {
        "type": "Feature",
        "id": 4,
        "geometry": {
          "type": "Point",
          "coordinates": [120.172197, 30.330407]
        },
        "properties": {
          "FID": 4,
          "name": "皋亭坝",
          "lng": 120.172197,
          "lat": 30.330407,
          "address": "地铁4号线"
        }
      },
      {
        "type": "Feature",
        "id": 5,
        "geometry": {
          "type": "Point",
          "coordinates": [120.160651, 30.317478]
        },
        "properties": {
          "FID": 5,
          "name": "善贤",
          "lng": 120.160651,
          "lat": 30.317478,
          "address": "地铁3号线;地铁5号线"
        }
      },
      {
        "type": "Feature",
        "id": 6,
        "geometry": {
          "type": "Point",
          "coordinates": [120.155365, 30.269668]
        },
        "properties": {
          "FID": 6,
          "name": "武林门",
          "lng": 120.155365,
          "lat": 30.269668,
          "address": "地铁2号线;地铁3号线"
        }
      },
      {
        "type": "Feature",
        "id": 7,
        "geometry": {
          "type": "Point",
          "coordinates": [120.164052, 30.254642]
        },
        "properties": {
          "FID": 7,
          "name": "龙翔桥",
          "lng": 120.164052,
          "lat": 30.254642,
          "address": "地铁1号线"
        }
      },
      {
        "type": "Feature",
        "id": 8,
        "geometry": {
          "type": "Point",
          "coordinates": [120.178545, 30.341489]
        },
        "properties": {
          "FID": 8,
          "name": "桃源街",
          "lng": 120.178545,
          "lat": 30.341489,
          "address": "地铁4号线"
        }
      },
      {
        "type": "Feature",
        "id": 9,
        "geometry": {
          "type": "Point",
          "coordinates": [120.169934, 30.31603]
        },
        "properties": {
          "FID": 9,
          "name": "西文街",
          "lng": 120.169934,
          "lat": 30.31603,
          "address": "地铁5号线"
        }
      },
      {
        "type": "Feature",
        "id": 10,
        "geometry": {
          "type": "Point",
          "coordinates": [120.175849, 30.308325]
        },
        "properties": {
          "FID": 10,
          "name": "东新园",
          "lng": 120.175849,
          "lat": 30.308325,
          "address": "地铁5号线"
        }
      },
      {
        "type": "Feature",
        "id": 11,
        "geometry": {
          "type": "Point",
          "coordinates": [120.178913, 30.295539]
        },
        "properties": {
          "FID": 11,
          "name": "杭氧",
          "lng": 120.178913,
          "lat": 30.295539,
          "address": "地铁5号线"
        }
      },
      {
        "type": "Feature",
        "id": 12,
        "geometry": {
          "type": "Point",
          "coordinates": [120.158795, 30.290314]
        },
        "properties": {
          "FID": 12,
          "name": "潮王路",
          "lng": 120.158795,
          "lat": 30.290314,
          "address": "地铁3号线"
        }
      },
      {
        "type": "Feature",
        "id": 13,
        "geometry": {
          "type": "Point",
          "coordinates": [120.165639, 30.279585]
        },
        "properties": {
          "FID": 13,
          "name": "西湖文化广场",
          "lng": 120.165639,
          "lat": 30.279585,
          "address": "地铁1号线;地铁3号线;地铁19号线"
        }
      },
      {
        "type": "Feature",
        "id": 14,
        "geometry": {
          "type": "Point",
          "coordinates": [120.164324, 30.272368]
        },
        "properties": {
          "FID": 14,
          "name": "武林广场",
          "lng": 120.164324,
          "lat": 30.272368,
          "address": "地铁1号线;地铁3号线"
        }
      },
      {
        "type": "Feature",
        "id": 15,
        "geometry": {
          "type": "Point",
          "coordinates": [120.172436, 30.264596]
        },
        "properties": {
          "FID": 15,
          "name": "中河北路",
          "lng": 120.172436,
          "lat": 30.264596,
          "address": "地铁2号线"
        }
      },
      {
        "type": "Feature",
        "id": 16,
        "geometry": {
          "type": "Point",
          "coordinates": [120.179868, 30.271799]
        },
        "properties": {
          "FID": 16,
          "name": "宝善桥",
          "lng": 120.179868,
          "lat": 30.271799,
          "address": "地铁5号线"
        }
      },
      {
        "type": "Feature",
        "id": 17,
        "geometry": {
          "type": "Point",
          "coordinates": [120.204384, 30.34005]
        },
        "properties": {
          "FID": 17,
          "name": "华丰路",
          "lng": 120.204384,
          "lat": 30.34005,
          "address": "地铁3号线"
        }
      },
      {
        "type": "Feature",
        "id": 18,
        "geometry": {
          "type": "Point",
          "coordinates": [120.200064, 30.323978]
        },
        "properties": {
          "FID": 18,
          "name": "华中南路",
          "lng": 120.200064,
          "lat": 30.323978,
          "address": "地铁4号线"
        }
      },
      {
        "type": "Feature",
        "id": 19,
        "geometry": {
          "type": "Point",
          "coordinates": [120.180761, 30.264552]
        },
        "properties": {
          "FID": 19,
          "name": "建国北路",
          "lng": 120.180761,
          "lat": 30.264552,
          "address": "地铁2号线;地铁5号线"
        }
      }
    ]
  }