[
  {
    "name": "杭州大学路北口(省中山医院庆春路院区)(公交站)",
    "lng": 120.17780836,
    "lat": 30.26050793
  },
  {
    "name": "杭州浙医一院(公交站)",
    "lng": 120.1709897,
    "lat": 30.26039807
  },
  {
    "name": "杭州仙林桥(公交站)",
    "lng": 120.16736684,
    "lat": 30.26319374
  },
  {
    "name": "杭州西桥(公交站)",
    "lng": 120.1679591,
    "lat": 30.26693305
  },
  {
    "name": "杭州大东门(公交站)",
    "lng": 120.1715081,
    "lat": 30.26603921
  },
  {
    "name": "杭州长庆潮鸣街道社区卫生服务中心(招呼站)(公交站)",
    "lng": 120.17157612,
    "lat": 30.26402274
  },
  {
    "name": "杭州青春坊东门(招呼站)(公交站)",
    "lng": 120.17167545,
    "lat": 30.26227885
  },
  {
    "name": "杭州吴牙巷(公交站)",
    "lng": 120.16855872,
    "lat": 30.26284292
  },
  {
    "name": "杭州长庆街东(公交站)",
    "lng": 120.17137117,
    "lat": 30.26292919
  },
  {
    "name": "杭州朝晖八区(招呼站)(公交站)",
    "lng": 120.1545163,
    "lat": 30.29181395
  },
  {
    "name": "杭州朝晖五区(公交站)",
    "lng": 120.15598854,
    "lat": 30.28943732
  },
  {
    "name": "杭州朝晖三区(公交站)",
    "lng": 120.1580849,
    "lat": 30.28685441
  },
  {
    "name": "杭州西湖文化广场(公交站)",
    "lng": 120.16089428,
    "lat": 30.28221353
  },
  {
    "name": "杭州小北门(公交站)",
    "lng": 120.16181954,
    "lat": 30.27456318
  },
  {
    "name": "杭州天水桥(公交站)",
    "lng": 120.16273769,
    "lat": 30.27070652
  },
  {
    "name": "杭州百井坊巷(公交站)",
    "lng": 120.16214946,
    "lat": 30.26911641
  },
  {
    "name": "杭州延安新村2(公交站)",
    "lng": 120.15881952,
    "lat": 30.27068612
  },
  {
    "name": "杭州朝晖一区1(公交站)",
    "lng": 120.16003379,
    "lat": 30.28443681
  },
  {
    "name": "杭州所巷(地铁建国北路站)1(公交站)",
    "lng": 120.17531533,
    "lat": 30.26696699
  },
  {
    "name": "杭州朝晖六区东(公交站)",
    "lng": 120.16648172,
    "lat": 30.29024575
  },
  {
    "name": "杭州朝晖四区(公交站)",
    "lng": 120.16227933,
    "lat": 30.28961064
  },
  {
    "name": "杭州省人民医院(公交站)",
    "lng": 120.16138107,
    "lat": 30.28833188
  },
  {
    "name": "杭州中河立交北(公交站)",
    "lng": 120.16510585,
    "lat": 30.28077346
  },
  {
    "name": "杭州中北桥(公交站)",
    "lng": 120.16235969,
    "lat": 30.27873798
  },
  {
    "name": "杭州贯桥(公交站)",
    "lng": 120.16444959,
    "lat": 30.26472592
  },
  {
    "name": "杭州众安桥北(公交站)",
    "lng": 120.16482443,
    "lat": 30.26149794
  },
  {
    "name": "杭州朝晖二区(公交站)",
    "lng": 120.16372894,
    "lat": 30.28543876
  },
  {
    "name": "杭州六公园(公交站)",
    "lng": 120.15566318,
    "lat": 30.26140594
  },
  {
    "name": "杭州红石板新村(公交站)",
    "lng": 120.1483901,
    "lat": 30.288008
  },
  {
    "name": "杭州朝晖九区(公交站)",
    "lng": 120.15274476,
    "lat": 30.2899953
  },
  {
    "name": "杭州朝晖八区南(公交站)",
    "lng": 120.15713484,
    "lat": 30.29150593
  },
  {
    "name": "杭州浙江工业大学(公交站)",
    "lng": 120.16316534,
    "lat": 30.29262369
  },
  {
    "name": "杭州绍兴路德胜路口1(公交站)",
    "lng": 120.16476274,
    "lat": 30.29909131
  },
  {
    "name": "杭州德胜里(公交站)",
    "lng": 120.1644228,
    "lat": 30.30117307
  },
  {
    "name": "杭州德胜东村(公交站)",
    "lng": 120.16913892,
    "lat": 30.30285536
  },
  {
    "name": "杭州草庵(公交站)",
    "lng": 120.17774805,
    "lat": 30.3054661
  },
  {
    "name": "杭州王公桥(公交站)",
    "lng": 120.17932735,
    "lat": 30.30334716
  },
  {
    "name": "杭州杭氧街(公交站)",
    "lng": 120.17644319,
    "lat": 30.30253813
  },
  {
    "name": "杭州东新路德胜路口(公交站)",
    "lng": 120.17348931,
    "lat": 30.302806
  },
  {
    "name": "杭州绍兴路德胜路口2(公交站)",
    "lng": 120.16426408,
    "lat": 30.29951738
  },
  {
    "name": "杭州庆春路浣纱路口(公交站)",
    "lng": 120.16306862,
    "lat": 30.26063195
  },
  {
    "name": "杭州孩儿巷(公交站)",
    "lng": 120.15911709,
    "lat": 30.26432865
  },
  {
    "name": "杭州昌化新村(公交站)",
    "lng": 120.15521934,
    "lat": 30.26956488
  },
  {
    "name": "杭州武林门(公交站)",
    "lng": 120.15193351,
    "lat": 30.2731557
  },
  {
    "name": "杭州长寿桥(公交站)",
    "lng": 120.15643792,
    "lat": 30.26447677
  },
  {
    "name": "杭州江山弄(公交站)",
    "lng": 120.15598968,
    "lat": 30.26709202
  },
  {
    "name": "杭州六公园北站(地铁凤起路站)(公交站)",
    "lng": 120.15742932,
    "lat": 30.26338327
  },
  {
    "name": "杭州小车桥(公交站)",
    "lng": 120.15577343,
    "lat": 30.26067349
  },
  {
    "name": "杭州钱塘门外(公交站)",
    "lng": 120.15370949,
    "lat": 30.26208459
  },
  {
    "name": "杭州环城西路十四中(公交站)",
    "lng": 120.15217176,
    "lat": 30.26727594
  },
  {
    "name": "杭州省府大楼东(公交站)",
    "lng": 120.15136724,
    "lat": 30.26987009
  },
  {
    "name": "杭州武林门南(公交站)",
    "lng": 120.15079455,
    "lat": 30.27186953
  },
  {
    "name": "杭州岳帅桥(公交站)",
    "lng": 120.17647472,
    "lat": 30.29662366
  },
  {
    "name": "杭州地铁杭氧站A口(公交站)",
    "lng": 120.17579963,
    "lat": 30.29603905
  },
  {
    "name": "杭州杭氧(公交站)",
    "lng": 120.17447346,
    "lat": 30.29686707
  },
  {
    "name": "杭州杭氧桥(公交站)",
    "lng": 120.17479244,
    "lat": 30.302101
  },
  {
    "name": "杭州新德佳苑(公交站)",
    "lng": 120.17580285,
    "lat": 30.303227
  },
  {
    "name": "杭州新德佳苑北(公交站)",
    "lng": 120.17614865,
    "lat": 30.3040202
  },
  {
    "name": "杭州都会公寓西门(招呼站)(公交站)",
    "lng": 120.17776606,
    "lat": 30.30396779
  },
  {
    "name": "杭州诗乐华庭(招呼站)(公交站)",
    "lng": 120.17972978,
    "lat": 30.30044121
  },
  {
    "name": "杭州熙晖府(招呼站)(公交站)",
    "lng": 120.17883128,
    "lat": 30.29875933
  },
  {
    "name": "杭州杭氧站(公交站)",
    "lng": 120.17447368,
    "lat": 30.29686707
  },
  {
    "name": "杭州西文街公交站(公交站)",
    "lng": 120.16508876,
    "lat": 30.31821899
  },
  {
    "name": "杭州方圆府1幢(招呼站)(公交站)",
    "lng": 120.16419662,
    "lat": 30.31701687
  },
  {
    "name": "杭州水印康庭21幢(招呼站)(公交站)",
    "lng": 120.1617895,
    "lat": 30.32008162
  },
  {
    "name": "杭州漾河公寓(公交站)",
    "lng": 120.16163286,
    "lat": 30.32130312
  },
  {
    "name": "杭州漾河人家(公交站)",
    "lng": 120.16348001,
    "lat": 30.32283729
  },
  {
    "name": "杭州西文北苑(招呼站)(公交站)",
    "lng": 120.16513659,
    "lat": 30.32375646
  },
  {
    "name": "杭州香源公寓(公交站)",
    "lng": 120.16504926,
    "lat": 30.32479424
  },
  {
    "name": "杭州西联桥(公交站)",
    "lng": 120.16203871,
    "lat": 30.31837046
  },
  {
    "name": "杭州美岸栖庭南门(招呼站)(公交站)",
    "lng": 120.16637857,
    "lat": 30.32599571
  },
  {
    "name": "杭州颜家港桥(公交站)",
    "lng": 120.16759616,
    "lat": 30.3256282
  },
  {
    "name": "杭州重机巷(公交站)",
    "lng": 120.17098794,
    "lat": 30.32216624
  },
  {
    "name": "杭州地铁新天地街站A口(公交站)",
    "lng": 120.17431315,
    "lat": 30.32435485
  },
  {
    "name": "杭州褚家桥(公交站)",
    "lng": 120.17386428,
    "lat": 30.32769245
  },
  {
    "name": "杭州石祥路东新路口(公交站)",
    "lng": 120.16960781,
    "lat": 30.32856618
  },
  {
    "name": "杭州永华街竹青路口(公交站)",
    "lng": 120.18457129,
    "lat": 30.34785772
  },
  {
    "name": "杭州永祥街回龙路口(公交站)",
    "lng": 120.1826477,
    "lat": 30.34592532
  },
  {
    "name": "杭州北景月桂苑(公交站)",
    "lng": 120.18153229,
    "lat": 30.34405854
  },
  {
    "name": "杭州都市枫林(招呼站)(公交站)",
    "lng": 120.17927384,
    "lat": 30.34340577
  },
  {
    "name": "杭州北景园小区187路起点(招呼站)(公交站)",
    "lng": 120.1789685,
    "lat": 30.3413311
  },
  {
    "name": "杭州北景园中心广场(招呼站)(公交站)",
    "lng": 120.18088864,
    "lat": 30.34105735
  },
  {
    "name": "杭州北景菊香苑(公交站)",
    "lng": 120.18155217,
    "lat": 30.33958405
  },
  {
    "name": "杭州汽轮广场(公交站)",
    "lng": 120.18252547,
    "lat": 30.3387069
  },
  {
    "name": "杭州地铁汽轮广场B口(公交站)",
    "lng": 120.18371744,
    "lat": 30.33814791
  },
  {
    "name": "杭州地铁汽轮广场站B口(公交站)",
    "lng": 120.18372157,
    "lat": 30.33819509
  },
  {
    "name": "杭州北景竹邻苑(公交站)",
    "lng": 120.18094697,
    "lat": 30.34111113
  },
  {
    "name": "杭州杨家里(公交站)",
    "lng": 120.16086731,
    "lat": 30.30666476
  },
  {
    "name": "杭州香积寺路白石巷口(公交站)",
    "lng": 120.1587775,
    "lat": 30.3081996
  },
  {
    "name": "杭州三塘南村(公交站)",
    "lng": 120.16088833,
    "lat": 30.30881045
  },
  {
    "name": "杭州三塘小区(公交站)",
    "lng": 120.16387194,
    "lat": 30.30933474
  },
  {
    "name": "杭州三塘沁园(公交站)",
    "lng": 120.16608358,
    "lat": 30.30969238
  },
  {
    "name": "杭州三塘竹苑(公交站)",
    "lng": 120.16726637,
    "lat": 30.30989467
  },
  {
    "name": "杭州颜家村(公交站)",
    "lng": 120.17112922,
    "lat": 30.3114109
  },
  {
    "name": "杭州桑湾里(公交站)",
    "lng": 120.17043149,
    "lat": 30.31435854
  },
  {
    "name": "杭州沈家路东新路口(公交站)",
    "lng": 120.17132728,
    "lat": 30.31827288
  },
  {
    "name": "杭州沈家村(公交站)",
    "lng": 120.1757441,
    "lat": 30.31818449
  },
  {
    "name": "杭州沈北桥(公交站)",
    "lng": 120.17662788,
    "lat": 30.32184904
  },
  {
    "name": "杭州东文街长浜路口(公交站)",
    "lng": 120.17190621,
    "lat": 30.32520176
  },
  {
    "name": "杭州万家星城幼儿园(招呼站)(公交站)",
    "lng": 120.1690492,
    "lat": 30.32520548
  },
  {
    "name": "杭州渡船庵西(公交站)",
    "lng": 120.16777041,
    "lat": 30.32942454
  },
  {
    "name": "杭州东新路瑞银街口(公交站)",
    "lng": 120.16876311,
    "lat": 30.33081029
  },
  {
    "name": "杭州中大银泰北(招呼站)(公交站)",
    "lng": 120.17156643,
    "lat": 30.33032148
  },
  {
    "name": "杭州西文东苑(招呼站)(公交站)",
    "lng": 120.17191454,
    "lat": 30.32771903
  },
  {
    "name": "杭州万家星城西区32幢(招呼站)(公交站)",
    "lng": 120.17003252,
    "lat": 30.32636656
  },
  {
    "name": "杭州珠埠里(公交站)",
    "lng": 120.16115568,
    "lat": 30.30464827
  },
  {
    "name": "杭州大成巷(公交站)",
    "lng": 120.1616846,
    "lat": 30.30561649
  },
  {
    "name": "杭州艮山闸(公交站)",
    "lng": 120.18136566,
    "lat": 30.27638186
  },
  {
    "name": "杭州市红会医院北(公交站)",
    "lng": 120.18312441,
    "lat": 30.26993917
  },
  {
    "name": "杭州潮鸣寺巷(公交站)",
    "lng": 120.17607766,
    "lat": 30.26507728
  },
  {
    "name": "杭州市红会医院(公交站)",
    "lng": 120.18034856,
    "lat": 30.26647964
  },
  {
    "name": "杭州北景园中心广场东(招呼站)(公交站)",
    "lng": 120.18156197,
    "lat": 30.34224553
  },
  {
    "name": "杭州北景荷风苑(公交站)",
    "lng": 120.17932379,
    "lat": 30.33720612
  },
  {
    "name": "杭州北景水镜苑(公交站)",
    "lng": 120.17917427,
    "lat": 30.33544503
  },
  {
    "name": "杭州北景芳洲苑南(公交站)",
    "lng": 120.1811196,
    "lat": 30.33392676
  },
  {
    "name": "杭州甘长村(公交站)",
    "lng": 120.17787793,
    "lat": 30.33053427
  },
  {
    "name": "杭州西文西苑(公交站)",
    "lng": 120.16422801,
    "lat": 30.32175633
  },
  {
    "name": "杭州孩儿巷2(公交站)",
    "lng": 120.15911715,
    "lat": 30.26432776
  },
  {
    "name": "杭州宝善桥(公交站)",
    "lng": 120.17422234,
    "lat": 30.27243488
  },
  {
    "name": "杭州市体育馆(公交站)",
    "lng": 120.16849449,
    "lat": 30.27219
  },
  {
    "name": "杭州武林广场南(公交站)",
    "lng": 120.16040587,
    "lat": 30.27265998
  },
  {
    "name": "杭州树园(公交站)",
    "lng": 120.1756849,
    "lat": 30.27083573
  },
  {
    "name": "杭州长板巷(公交站)",
    "lng": 120.15180248,
    "lat": 30.29108218
  },
  {
    "name": "杭州朝晖九区北(公交站)",
    "lng": 120.15289744,
    "lat": 30.29341476
  },
  {
    "name": "杭州华丰路华悦路口(公交站)",
    "lng": 120.20035122,
    "lat": 30.34254889
  },
  {
    "name": "杭州华中路华丰路口(公交站)",
    "lng": 120.19806757,
    "lat": 30.34175182
  },
  {
    "name": "杭州太公街(公交站)",
    "lng": 120.19800253,
    "lat": 30.33819327
  },
  {
    "name": "杭州华祥桥(公交站)",
    "lng": 120.197651,
    "lat": 30.33253275
  },
  {
    "name": "杭州杨家春晓东(公交站)",
    "lng": 120.19727803,
    "lat": 30.32898164
  },
  {
    "name": "杭州景洲公寓(公交站)",
    "lng": 120.1968892,
    "lat": 30.32518829
  },
  {
    "name": "杭州汇丰里(公交站)",
    "lng": 120.19248792,
    "lat": 30.31853093
  },
  {
    "name": "杭州东新园小区(公交站)",
    "lng": 120.17835689,
    "lat": 30.31502815
  },
  {
    "name": "杭州长浜路香积寺路口(公交站)",
    "lng": 120.17846385,
    "lat": 30.31242744
  },
  {
    "name": "杭州东新园南门(公交站)",
    "lng": 120.17387723,
    "lat": 30.31070051
  },
  {
    "name": "杭州长木桥(公交站)",
    "lng": 120.17162806,
    "lat": 30.30853557
  },
  {
    "name": "杭州打铁关北(公交站)",
    "lng": 120.1729741,
    "lat": 30.2924372
  },
  {
    "name": "杭州地铁打铁关站A口(水务大厦)(公交站)",
    "lng": 120.17382237,
    "lat": 30.28900944
  },
  {
    "name": "杭州打铁关(水务大厦)(公交站)",
    "lng": 120.1722123,
    "lat": 30.28866432
  },
  {
    "name": "杭州东新园小区2(公交站)",
    "lng": 120.1784624,
    "lat": 30.31707936
  },
  {
    "name": "杭州陈衙营(公交站)",
    "lng": 120.17759858,
    "lat": 30.27274889
  },
  {
    "name": "杭州武林广场西(公交站)",
    "lng": 120.15754123,
    "lat": 30.27362721
  },
  {
    "name": "杭州轮船码头(公交站)",
    "lng": 120.15829736,
    "lat": 30.27556389
  },
  {
    "name": "杭州华丰村(公交站)",
    "lng": 120.19513097,
    "lat": 30.34250461
  },
  {
    "name": "杭州华丰路石桥路口(公交站)",
    "lng": 120.18887808,
    "lat": 30.34181832
  },
  {
    "name": "杭州轴承厂(公交站)",
    "lng": 120.18749837,
    "lat": 30.3404169
  },
  {
    "name": "杭州石桥路石祥路口(公交站)",
    "lng": 120.18858953,
    "lat": 30.33500163
  },
  {
    "name": "杭州石桥(公交站)",
    "lng": 120.18883937,
    "lat": 30.33072012
  },
  {
    "name": "杭州纺机厂(公交站)",
    "lng": 120.1888407,
    "lat": 30.3274476
  },
  {
    "name": "杭州杨家村(公交站)",
    "lng": 120.18907971,
    "lat": 30.31971879
  },
  {
    "name": "杭州欢喜永宁桥(公交站)",
    "lng": 120.17201874,
    "lat": 30.33503975
  },
  {
    "name": "杭州北景园小区西(公交站)",
    "lng": 120.17640627,
    "lat": 30.34021584
  },
  {
    "name": "杭州石灰坝(公交站)",
    "lng": 120.15744165,
    "lat": 30.2939724
  },
  {
    "name": "杭州武林小广场1(公交站)",
    "lng": 120.1531513,
    "lat": 30.27386111
  },
  {
    "name": "杭州孩儿巷1(公交站)",
    "lng": 120.15912183,
    "lat": 30.26419046
  },
  {
    "name": "杭州三塘竹苑(途经站)(公交站)",
    "lng": 120.16726562,
    "lat": 30.30989591
  },
  {
    "name": "杭州武林小广场(公交站)",
    "lng": 120.1532436,
    "lat": 30.27389625
  },
  {
    "name": "杭州凤起路十四中(公交站)",
    "lng": 120.15514036,
    "lat": 30.26574909
  },
  {
    "name": "杭州王子塘(公交站)",
    "lng": 120.16136737,
    "lat": 30.31296875
  },
  {
    "name": "杭州三塘桃园(公交站)",
    "lng": 120.16528161,
    "lat": 30.31081939
  },
  {
    "name": "杭州三塘北村(公交站)",
    "lng": 120.15972139,
    "lat": 30.30979893
  },
  {
    "name": "杭州三塘兰园(公交站)",
    "lng": 120.15991222,
    "lat": 30.31125276
  },
  {
    "name": "杭州艮山门东站1(公交站)",
    "lng": 120.17975019,
    "lat": 30.27777781
  },
  {
    "name": "杭州建国北路文晖路口(公交站)",
    "lng": 120.17264371,
    "lat": 30.28338593
  },
  {
    "name": "杭州天鼎公寓2幢(招呼站)(公交站)",
    "lng": 120.19343912,
    "lat": 30.32768323
  },
  {
    "name": "杭州八角凉亭(公交站)",
    "lng": 120.19330302,
    "lat": 30.33095004
  },
  {
    "name": "杭州景翠公寓7幢(招呼站)(公交站)",
    "lng": 120.19321222,
    "lat": 30.33157965
  },
  {
    "name": "杭州皇亲巷(公交站)",
    "lng": 120.16131372,
    "lat": 30.26651176
  },
  {
    "name": "杭州联桥(公交站)",
    "lng": 120.16697069,
    "lat": 30.26332656
  },
  {
    "name": "杭州延安新村1(公交站)",
    "lng": 120.15883618,
    "lat": 30.27022648
  },
  {
    "name": "杭州沙田里(公交站)",
    "lng": 120.17399182,
    "lat": 30.28128144
  },
  {
    "name": "杭州打铁关站(公交站)",
    "lng": 120.17221378,
    "lat": 30.28866399
  },
  {
    "name": "杭州流水北苑(公交站)",
    "lng": 120.17597496,
    "lat": 30.28237934
  },
  {
    "name": "杭州焦家村(公交站)",
    "lng": 120.17373273,
    "lat": 30.2892319
  },
  {
    "name": "杭州武林小广场2(公交站)",
    "lng": 120.15316486,
    "lat": 30.27401196
  },
  {
    "name": "杭州武林广场北1(公交站)",
    "lng": 120.1560111,
    "lat": 30.27536475
  },
  {
    "name": "杭州梅登高桥(公交站)",
    "lng": 120.16630759,
    "lat": 30.26996776
  },
  {
    "name": "杭州混堂桥(公交站)",
    "lng": 120.15103062,
    "lat": 30.27492608
  },
  {
    "name": "杭州武林广场北(公交站)",
    "lng": 120.15629457,
    "lat": 30.27538841
  },
  {
    "name": "杭州中北桥南(公交站)",
    "lng": 120.16008302,
    "lat": 30.2757279
  },
  {
    "name": "杭州艮山门(公交站)",
    "lng": 120.17182816,
    "lat": 30.27679051
  },
  {
    "name": "杭州艮山门东站2(公交站)",
    "lng": 120.17877342,
    "lat": 30.27760689
  },
  {
    "name": "杭州三里家园一区(招呼站)(公交站)",
    "lng": 120.18589572,
    "lat": 30.30282243
  },
  {
    "name": "杭州三里亭农翠巷(公交站)",
    "lng": 120.18440147,
    "lat": 30.30472576
  },
  {
    "name": "杭州文晖大桥西(公交站)",
    "lng": 120.17014219,
    "lat": 30.28450403
  },
  {
    "name": "杭州市儿童医院(公交站)",
    "lng": 120.16650303,
    "lat": 30.28419032
  },
  {
    "name": "杭州朝晖一区南(公交站)",
    "lng": 120.16338737,
    "lat": 30.28390034
  },
  {
    "name": "杭州市交警支队(公交站)",
    "lng": 120.15963374,
    "lat": 30.28320642
  },
  {
    "name": "杭州莫衙营(公交站)",
    "lng": 120.17524277,
    "lat": 30.27458944
  },
  {
    "name": "杭州朝晖六区(公交站)",
    "lng": 120.15978412,
    "lat": 30.29081624
  },
  {
    "name": "杭州艮山流水苑(公交站)",
    "lng": 120.17823097,
    "lat": 30.28162619
  },
  {
    "name": "杭州庆春门北(公交站)",
    "lng": 120.18271806,
    "lat": 30.26193147
  },
  {
    "name": "杭州众安桥(公交站)",
    "lng": 120.16611075,
    "lat": 30.26049442
  },
  {
    "name": "杭州绍兴路香积寺路口(公交站)",
    "lng": 120.15484235,
    "lat": 30.30983364
  },
  {
    "name": "杭州北景园小区(公交站)",
    "lng": 120.17839978,
    "lat": 30.3415055
  },
  {
    "name": "杭州延安新村(公交站)",
    "lng": 120.15877177,
    "lat": 30.26954631
  },
  {
    "name": "杭州草庵站(公交站)",
    "lng": 120.17689278,
    "lat": 30.30546912
  },
  {
    "name": "杭州和平广场2(公交站)",
    "lng": 120.17098109,
    "lat": 30.29224609
  },
  {
    "name": "杭州桦枫居(招呼站)(公交站)",
    "lng": 120.1909599,
    "lat": 30.3453118
  },
  {
    "name": "杭州窑里(公交站)",
    "lng": 120.18923792,
    "lat": 30.34352184
  },
  {
    "name": "杭州地铁汽轮广场站(A?B)(公交站)",
    "lng": 120.18371818,
    "lat": 30.33814796
  },
  {
    "name": "杭州杭州装饰城(公交站)",
    "lng": 120.18724519,
    "lat": 30.34489559
  },
  {
    "name": "杭州桦枫居(公交站)",
    "lng": 120.19105013,
    "lat": 30.34515995
  },
  {
    "name": "杭州华中路杭玻街口(公交站)",
    "lng": 120.19803757,
    "lat": 30.34678507
  },
  {
    "name": "杭州将军殿里(公交站)",
    "lng": 120.19331672,
    "lat": 30.32110403
  },
  {
    "name": "杭州地铁华中南路站(D?E)(公交站)",
    "lng": 120.19436439,
    "lat": 30.32621591
  },
  {
    "name": "杭州元都新景西门(招呼站)(公交站)",
    "lng": 120.19972622,
    "lat": 30.34620288
  },
  {
    "name": "杭州尧典桥路东(公交站)",
    "lng": 120.18736184,
    "lat": 30.30497181
  },
  {
    "name": "杭州武林广场2(公交站)",
    "lng": 120.15970727,
    "lat": 30.27307023
  },
  {
    "name": "杭州环北新村(公交站)",
    "lng": 120.15473211,
    "lat": 30.27493011
  },
  {
    "name": "杭州运河艮山公园(公交站)",
    "lng": 120.18073202,
    "lat": 30.27861903
  },
  {
    "name": "杭州建北桥(公交站)",
    "lng": 120.17078883,
    "lat": 30.28095868
  },
  {
    "name": "杭州施家桥(公交站)",
    "lng": 120.16717892,
    "lat": 30.28055919
  },
  {
    "name": "杭州朝晖一区2(公交站)",
    "lng": 120.15955233,
    "lat": 30.28504513
  },
  {
    "name": "杭州凤起路新华路口(公交站)",
    "lng": 120.17030816,
    "lat": 30.26699666
  },
  {
    "name": "杭州稻香园(公交站)",
    "lng": 120.14936702,
    "lat": 30.28752448
  },
  {
    "name": "杭州江心岛(公交站)",
    "lng": 120.15111659,
    "lat": 30.28574551
  },
  {
    "name": "杭州所巷(公交站)",
    "lng": 120.17796801,
    "lat": 30.26668428
  },
  {
    "name": "杭州费家塘(公交站)",
    "lng": 120.18114575,
    "lat": 30.3218693
  },
  {
    "name": "杭州欣景苑(公交站)",
    "lng": 120.18113,
    "lat": 30.32337487
  },
  {
    "name": "杭州东文街费家塘路口(公交站)",
    "lng": 120.18064267,
    "lat": 30.3264163
  },
  {
    "name": "杭州东文街永福桥路口(公交站)",
    "lng": 120.17684233,
    "lat": 30.32642506
  },
  {
    "name": "杭州沈北桥(地铁新天地街站)(公交站)",
    "lng": 120.17624745,
    "lat": 30.32211515
  },
  {
    "name": "杭州杨六村(公交站)",
    "lng": 120.1593304,
    "lat": 30.30487113
  },
  {
    "name": "杭州杨家沁苑北(公交站)",
    "lng": 120.18671858,
    "lat": 30.32607465
  },
  {
    "name": "杭州新天地街隧道西(公交站)",
    "lng": 120.17690158,
    "lat": 30.32417143
  },
  {
    "name": "杭州杨家沁苑东(公交站)",
    "lng": 120.18888699,
    "lat": 30.32511751
  },
  {
    "name": "杭州武林广场北2(公交站)",
    "lng": 120.15603409,
    "lat": 30.27548549
  },
  {
    "name": "杭州下焦营巷(公交站)",
    "lng": 120.1638011,
    "lat": 30.26821556
  },
  {
    "name": "杭州地铁凤起路站E口(公交站)",
    "lng": 120.15742365,
    "lat": 30.26608864
  },
  {
    "name": "杭州艮山门东站(公交站)",
    "lng": 120.1788021,
    "lat": 30.27768691
  },
  {
    "name": "杭州北景园小区总站(公交站)",
    "lng": 120.17832199,
    "lat": 30.34151045
  },
  {
    "name": "杭州廻龙村(公交站)",
    "lng": 120.18696131,
    "lat": 30.34920115
  },
  {
    "name": "杭州康宁街曾家桥(公交站)",
    "lng": 120.19933944,
    "lat": 30.33729049
  },
  {
    "name": "杭州大学路北口(省中山医院庆春路院区)2(公交站)",
    "lng": 120.17780853,
    "lat": 30.26050656
  },
  {
    "name": "杭州西文村(公交站)",
    "lng": 120.16891284,
    "lat": 30.32095738
  },
  {
    "name": "杭州北景芳洲苑(公交站)",
    "lng": 120.18163226,
    "lat": 30.33444433
  },
  {
    "name": "杭州北景莲趣苑(公交站)",
    "lng": 120.18154411,
    "lat": 30.33693627
  },
  {
    "name": "杭州北景月桂苑1幢(招呼站)(公交站)",
    "lng": 120.18354895,
    "lat": 30.34371889
  },
  {
    "name": "杭州武林广场(公交站)",
    "lng": 120.15970427,
    "lat": 30.27322322
  },
  {
    "name": "杭州康宁街华西路口(公交站)",
    "lng": 120.19469107,
    "lat": 30.33700971
  },
  {
    "name": "杭州华西路南(公交站)",
    "lng": 120.1929131,
    "lat": 30.33566446
  },
  {
    "name": "杭州石桥立交(公交站)",
    "lng": 120.18472817,
    "lat": 30.33223753
  },
  {
    "name": "杭州西湖漾河桥(公交站)",
    "lng": 120.16840271,
    "lat": 30.31839388
  },
  {
    "name": "杭州地铁西文街站C2口(公交站)",
    "lng": 120.1662309,
    "lat": 30.3176778
  },
  {
    "name": "杭州香石巷(公交站)",
    "lng": 120.16496422,
    "lat": 30.31439084
  },
  {
    "name": "杭州六塘公寓(公交站)",
    "lng": 120.16569354,
    "lat": 30.30917074
  },
  {
    "name": "杭州三塘汶园西(公交站)",
    "lng": 120.16641366,
    "lat": 30.30628517
  },
  {
    "name": "杭州长木新村(公交站)",
    "lng": 120.16708196,
    "lat": 30.30479613
  },
  {
    "name": "杭州会农桥东(公交站)",
    "lng": 120.19956802,
    "lat": 30.34997418
  },
  {
    "name": "杭州大学路北口(公交站)",
    "lng": 120.17780717,
    "lat": 30.26050647
  },
  {
    "name": "杭州绍兴支路(公交站)",
    "lng": 120.17568161,
    "lat": 30.28408845
  },
  {
    "name": "杭州和平广场1(公交站)",
    "lng": 120.17149134,
    "lat": 30.2918196
  },
  {
    "name": "杭州草庵公交站(公交站)",
    "lng": 120.17927704,
    "lat": 30.30631952
  },
  {
    "name": "杭州六公园北站(公交站)",
    "lng": 120.15741403,
    "lat": 30.26338013
  },
  {
    "name": "杭州所巷(地铁建国北路站)(公交站)",
    "lng": 120.17774918,
    "lat": 30.26670293
  },
  {
    "name": "杭州潮鸣小天竺(公交站)",
    "lng": 120.18149537,
    "lat": 30.26469433
  },
  {
    "name": "杭州刀茅巷南(公交站)",
    "lng": 120.18123825,
    "lat": 30.26168213
  },
  {
    "name": "杭州大学路北口(省中山医院庆春路院区)1(公交站)",
    "lng": 120.17780894,
    "lat": 30.26050605
  },
  {
    "name": "杭州东新园小区1(公交站)",
    "lng": 120.17846169,
    "lat": 30.31708098
  },
  {
    "name": "杭州白石巷新西路口(公交站)",
    "lng": 120.16060469,
    "lat": 30.31756318
  },
  {
    "name": "杭州武林广场1(公交站)",
    "lng": 120.15970452,
    "lat": 30.27322386
  },
  {
    "name": "杭州艮山门东站4(公交站)",
    "lng": 120.17808717,
    "lat": 30.27763243
  },
  {
    "name": "杭州焦家村公交站(公交站)",
    "lng": 120.17469929,
    "lat": 30.2890356
  },
  {
    "name": "杭州打铁关(公交站)",
    "lng": 120.17221335,
    "lat": 30.28866336
  },
  {
    "name": "杭州地铁打铁关站A口(公交站)",
    "lng": 120.1735723,
    "lat": 30.28775633
  },
  {
    "name": "杭州地铁香积寺路站B口(公交站)",
    "lng": 120.17005348,
    "lat": 30.31190564
  },
  {
    "name": "杭州白石巷西文街口(公交站)",
    "lng": 120.16058477,
    "lat": 30.31743777
  },
  {
    "name": "杭州绍兴路德胜路口(公交站)",
    "lng": 120.1640912,
    "lat": 30.29970749
  },
  {
    "name": "杭州市公交集团(公交站)",
    "lng": 120.17845695,
    "lat": 30.27766174
  },
  {
    "name": "杭州石桥公交停车场(公交站)",
    "lng": 120.20350451,
    "lat": 30.33969105
  },
  {
    "name": "杭州和平广场(公交站)",
    "lng": 120.17101282,
    "lat": 30.29221299
  },
  {
    "name": "杭州地铁东新园站B口(公交站)",
    "lng": 120.16999686,
    "lat": 30.31189532
  },
  {
    "name": "杭州艮山门东站3(公交站)",
    "lng": 120.17849733,
    "lat": 30.27766289
  },
  {
    "name": "杭州长兴公寓(公交站)",
    "lng": 120.1686543,
    "lat": 30.30886097
  },
  {
    "name": "杭州三塘汶园(公交站)",
    "lng": 120.1687331,
    "lat": 30.30748619
  },
  {
    "name": "杭州梅登高桥(杭州高级中学)(公交站)",
    "lng": 120.16630618,
    "lat": 30.26996943
  },
  {
    "name": "杭州华丰公交站(公交站)",
    "lng": 120.20263409,
    "lat": 30.33709545
  },
  {
    "name": "杭州石桥朱家塘(公交站)",
    "lng": 120.20350418,
    "lat": 30.33968952
  },
  {
    "name": "杭州华丰北苑(公交站)",
    "lng": 120.19496939,
    "lat": 30.34483544
  },
  {
    "name": "杭州景洲公寓(地铁华中南路站)(公交站)",
    "lng": 120.1968904,
    "lat": 30.32518838
  },
  {
    "name": "杭州最美浙江人展示馆(武林广场西)(公交站)",
    "lng": 120.15756761,
    "lat": 30.27324956
  },
  {
    "name": "杭州杭州城市建设陈列馆(孩儿巷)(公交站)",
    "lng": 120.15912443,
    "lat": 30.26415244
  },
  {
    "name": "杭州杭州大厦(公交站)",
    "lng": 120.15608703,
    "lat": 30.27536908
  },
  {
    "name": "杭州松艮路(公交站)",
    "lng": 120.17725564,
    "lat": 30.28361186
  },
  {
    "name": "杭州和平会展中心(公交站)",
    "lng": 120.16926609,
    "lat": 30.29416781
  },
  {
    "name": "杭州城北体育公园(公交站)",
    "lng": 120.15705621,
    "lat": 30.30738188
  },
  {
    "name": "杭州凤起路(公交站)",
    "lng": 120.15907887,
    "lat": 30.26396469
  },
  {
    "name": "杭州建国北路(公交站)",
    "lng": 120.17614449,
    "lat": 30.26693023
  },
  {
    "name": "杭州中河北路(公交站)",
    "lng": 120.16779272,
    "lat": 30.26695821
  },
  {
    "name": "杭州潮王路(公交站)",
    "lng": 120.15411051,
    "lat": 30.2926482
  },
  {
    "name": "杭州新天地街(公交站)",
    "lng": 120.17495819,
    "lat": 30.32353645
  },
  {
    "name": "杭州华丰路(公交站)",
    "lng": 120.19982507,
    "lat": 30.34245777
  },
  {
    "name": "杭州华中南路(公交站)",
    "lng": 120.19549667,
    "lat": 30.32638178
  },
  {
    "name": "杭州西文街(公交站)",
    "lng": 120.16527974,
    "lat": 30.31838233
  },
  {
    "name": "杭州东新园(公交站)",
    "lng": 120.17121324,
    "lat": 30.31068924
  },
  {
    "name": "杭州环北市场(公交站)",
    "lng": 120.16810104,
    "lat": 30.26692892
  },
  {
    "name": "杭州地铁凤起路站(E?F)(公交站)",
    "lng": 120.1577792,
    "lat": 30.26603587
  },
  {
    "name": "杭州杭州(武林门民航售票处)(公交站)",
    "lng": 120.15481889,
    "lat": 30.27278465
  },
  {
    "name": "杭州武林门民航售票处(公交站)",
    "lng": 120.1548506,
    "lat": 30.27294699
  },
  {
    "name": "杭州凤起路地铁站F口(公交站)",
    "lng": 120.15795179,
    "lat": 30.26590476
  },
  {
    "name": "杭州水上巴士武林门站(公交站)",
    "lng": 120.16015057,
    "lat": 30.27677518
  },
  {
    "name": "杭州水上巴士艮山门站(公交站)",
    "lng": 120.17812089,
    "lat": 30.27974896
  },
  {
    "name": "杭州北景园(公交站)",
    "lng": 120.18068468,
    "lat": 30.34747682
  },
  {
    "name": "杭州欢喜永宁(公交站)",
    "lng": 120.17053683,
    "lat": 30.33398638
  },
  {
    "name": "杭州西文(公交站)",
    "lng": 120.16481041,
    "lat": 30.32712921
  },
  {
    "name": "杭州城北体育(公交站)",
    "lng": 120.15532204,
    "lat": 30.31498698
  },
  {
    "name": "杭州工大(公交站)",
    "lng": 120.16236895,
    "lat": 30.2972305
  },
  {
    "name": "杭州朝晖站(公交站)",
    "lng": 120.16749989,
    "lat": 30.28983516
  },
  {
    "name": "杭州坝子桥(公交站)",
    "lng": 120.17385041,
    "lat": 30.27499843
  },
  {
    "name": "杭州广安新桥(公交站)",
    "lng": 120.17436823,
    "lat": 30.2700089
  },
  {
    "name": "杭州西湖文化广场(弘元大厦)(公交站)",
    "lng": 120.16116601,
    "lat": 30.2797707
  },
  {
    "name": "杭州广电小区1号楼(招呼站)(公交站)",
    "lng": 120.17928693,
    "lat": 30.31567626
  },
  {
    "name": "杭州香栖天第(公交站)",
    "lng": 120.18246668,
    "lat": 30.31323654
  },
  {
    "name": "杭州新天地金座(公交站)",
    "lng": 120.17493977,
    "lat": 30.32890342
  },
  {
    "name": "杭州新天地尚座(公交站)",
    "lng": 120.17675166,
    "lat": 30.32964736
  },
  {
    "name": "杭州新天地望座4幢(公交站)",
    "lng": 120.17847442,
    "lat": 30.33001382
  },
  {
    "name": "杭州新天地望座5幢(公交站)",
    "lng": 120.17974163,
    "lat": 30.3303825
  },
  {
    "name": "杭州跨贸小镇(公交站)",
    "lng": 120.18094641,
    "lat": 30.32896773
  },
  {
    "name": "杭州世嘉铭座(公交站)",
    "lng": 120.18081347,
    "lat": 30.32832353
  },
  {
    "name": "杭州世嘉新座(公交站)",
    "lng": 120.17891441,
    "lat": 30.32831737
  },
  {
    "name": "杭州永丰地块停车场(公交站)",
    "lng": 120.1904334,
    "lat": 30.34778628
  }
]